{"@id":"https://w3id.org/locolligo/Tower_Hamlets_ArtUK","type":"FeatureCollection","@context":"https://w3id.org/locolligo/contexts/linkedplaces.jsonld","features":[{"type":"Feature","uuid":266330,"@id":"https://artuk.org/artworks/266330","properties":{"title":"Parallel Presence","artworkType":"Sculpture","address":"Limeharbour, Isle of Dogs","organisation":"(Open Air)"},"geometry":{"type":"Point","coordinates":[-0.013505754,51.498389],"certainty":"certain"}},{"type":"Feature","uuid":312293,"@id":"https://artuk.org/artworks/312293","properties":{"title":"The Minotaur and the Hare on Bench","artworkType":"Sculpture","address":"Wood Wharf, Park Drive","organisation":"(Open Air)"},"geometry":{"type":"Point","coordinates":[-0.014151335,51.501969],"certainty":"certain"}},{"type":"Feature","uuid":312231,"@id":"https://artuk.org/artworks/312231","properties":{"title":"Metamorphosis","artworkType":"Sculpture","address":"Wood Wharf, Park Drive","organisation":"(Open Air)"},"geometry":{"type":"Point","coordinates":[-0.014286,51.501981],"certainty":"certain"}},{"type":"Feature","uuid":312254,"@id":"https://artuk.org/artworks/312254","properties":{"title":"Original Form","artworkType":"Sculpture","address":"South Quay East, Montgomery Street","organisation":"(Open Air)"},"geometry":{"type":"Point","coordinates":[-0.016128838,51.502071],"certainty":"certain"}},{"type":"Feature","uuid":312288,"@id":"https://artuk.org/artworks/312288","properties":{"title":"Standing Figure (Man)","artworkType":"Sculpture","address":"Wood Wharf, Park Drive","organisation":"(Open Air)"},"geometry":{"type":"Point","coordinates":[-0.013787269,51.502235],"certainty":"certain"}},{"type":"Feature","uuid":312289,"@id":"https://artuk.org/artworks/312289","properties":{"title":"Standing Figure (Woman)","artworkType":"Sculpture","address":"Wood Wharf, Park Drive","organisation":"(Open Air)"},"geometry":{"type":"Point","coordinates":[-0.013787269,51.502235],"certainty":"certain"}},{"type":"Feature","uuid":312243,"@id":"https://artuk.org/artworks/312243","properties":{"title":"Testa Addormentata","artworkType":"Sculpture","address":"Bank Street","organisation":"(Open Air)"},"geometry":{"type":"Point","coordinates":[-0.019968,51.502859],"certainty":"certain"}},{"type":"Feature","uuid":312282,"@id":"https://artuk.org/artworks/312282","properties":{"title":"The Knot","artworkType":"Sculpture","address":"Water Street","organisation":"(Open Air)"},"geometry":{"type":"Point","coordinates":[-0.014987469,51.502872],"certainty":"certain"}},{"type":"Feature","uuid":312207,"@id":"https://artuk.org/artworks/312207","properties":{"title":"Torsion II","artworkType":"Sculpture","address":"Bank Street","organisation":"(Open Air)"},"geometry":{"type":"Point","coordinates":[-0.019852995,51.50294],"certainty":"certain"}},{"type":"Feature","uuid":311397,"@id":"https://artuk.org/artworks/311397","properties":{"title":"Here","artworkType":"Sign or marker","address":"Thames Path","organisation":"(Open Air)"},"geometry":{"type":"Point","coordinates":[-0.0013944134,51.502968],"certainty":"certain"}},{"type":"Feature","uuid":312210,"@id":"https://artuk.org/artworks/312210","properties":{"title":"Wharf Walk","artworkType":"Panel","address":"Lower levels, Jubilee Place Mall","organisation":"(Open Air)"},"geometry":{"type":"Point","coordinates":[-0.019272,51.503032],"certainty":"certain"}},{"type":"Feature","uuid":312251,"@id":"https://artuk.org/artworks/312251","properties":{"title":"Scribbleform","artworkType":"Sculpture","address":"Montgomery Square","organisation":"(Open Air)"},"geometry":{"type":"Point","coordinates":[-0.016323,51.503049],"certainty":"certain"}},{"type":"Feature","uuid":312209,"@id":"https://artuk.org/artworks/312209","properties":{"title":"Sacrificial Anode","artworkType":"Sculpture","address":"Montgomery Square","organisation":"(Open Air)"},"geometry":{"type":"Point","coordinates":[-0.016363621,51.503074],"certainty":"certain"}},{"type":"Feature","uuid":312226,"@id":"https://artuk.org/artworks/312226","properties":{"title":"Flight","artworkType":"Sculpture","address":"Jubilee Park","organisation":"(Open Air)"},"geometry":{"type":"Point","coordinates":[-0.018319,51.503382],"certainty":"certain"}},{"type":"Feature","uuid":312267,"@id":"https://artuk.org/artworks/312267","properties":{"title":"Arbor","artworkType":"Street furniture","address":"Montgomery Square","organisation":"(Open Air)"},"geometry":{"type":"Point","coordinates":[-0.017256,51.503399],"certainty":"certain"}},{"type":"Feature","uuid":312268,"@id":"https://artuk.org/artworks/312268","properties":{"title":"Cross Way","artworkType":"Street furniture","address":"Montgomery Square","organisation":"(Open Air)"},"geometry":{"type":"Point","coordinates":[-0.017256,51.503399],"certainty":"certain"}},{"type":"Feature","uuid":312294,"@id":"https://artuk.org/artworks/312294","properties":{"title":"Drawing Cube (Blue)","artworkType":"Sculpture","address":"Montgomery Square","organisation":"(Open Air)"},"geometry":{"type":"Point","coordinates":[-0.0163,51.503413],"certainty":"certain"}},{"type":"Feature","uuid":312238,"@id":"https://artuk.org/artworks/312238","properties":{"title":"Centauro","artworkType":"Equestrian","address":"Montgomery Square","organisation":"(Open Air)"},"geometry":{"type":"Point","coordinates":[-0.017044812,51.503436],"certainty":"certain"}},{"type":"Feature","uuid":312206,"@id":"https://artuk.org/artworks/312206","properties":{"title":"Helisphere","artworkType":"Sculpture","address":"Bank Street","organisation":"(Open Air)"},"geometry":{"type":"Point","coordinates":[-0.021692634,51.50345],"certainty":"certain"}},{"type":"Feature","uuid":312224,"@id":"https://artuk.org/artworks/312224","properties":{"title":"Venus","artworkType":"Sculpture","address":"Jubilee Park","organisation":"(Open Air)"},"geometry":{"type":"Point","coordinates":[-0.018527,51.503486],"certainty":"certain"}},{"type":"Feature","uuid":312227,"@id":"https://artuk.org/artworks/312227","properties":{"title":"Fortuna","artworkType":"Sculpture","address":"Jubilee Park","organisation":"(Open Air)"},"geometry":{"type":"Point","coordinates":[-0.018984676,51.503505],"certainty":"certain"}},{"type":"Feature","uuid":312280,"@id":"https://artuk.org/artworks/312280","properties":{"title":"Tear","artworkType":"Sculpture","address":"West Plaza","organisation":"(Open Air)"},"geometry":{"type":"Point","coordinates":[-0.019746423,51.503519],"certainty":"certain"}},{"type":"Feature","uuid":312292,"@id":"https://artuk.org/artworks/312292","properties":{"title":"Colour East","artworkType":"Panel","address":"Jubilee Line Station","organisation":"(Open Air)"},"geometry":{"type":"Point","coordinates":[-0.019403,51.503598],"certainty":"certain"}},{"type":"Feature","uuid":312291,"@id":"https://artuk.org/artworks/312291","properties":{"title":"A Beautiful Sunset Mistaken for a Dream","artworkType":"Mural","address":"Bank Street","organisation":"(Open Air)"},"geometry":{"type":"Point","coordinates":[-0.021436,51.503673],"certainty":"certain"}},{"type":"Feature","uuid":312220,"@id":"https://artuk.org/artworks/312220","properties":{"title":"Ascent","artworkType":"Sculpture","address":"Canada Square","organisation":"(Open Air)"},"geometry":{"type":"Point","coordinates":[-0.018213,51.503689],"certainty":"certain"}},{"type":"Feature","uuid":312298,"@id":"https://artuk.org/artworks/312298","properties":{"title":"Coquino Coral","artworkType":"Sculpture","address":"Canada Square","organisation":"(Open Air)"},"geometry":{"type":"Point","coordinates":[-0.018121004,51.503729],"certainty":"certain"}},{"type":"Feature","uuid":312200,"@id":"https://artuk.org/artworks/312200","properties":{"title":"Art Glass Wall","artworkType":"Panel","address":"Canada Place Mall","organisation":"(Open Air)"},"geometry":{"type":"Point","coordinates":[-0.018664493,51.50379555],"certainty":"certain"}},{"type":"Feature","uuid":312276,"@id":"https://artuk.org/artworks/312276","properties":{"title":"Between Theory and Practice (A Bridge Between Euclid and Rorschach)","artworkType":"Panel","address":"Bellmouth Passage","organisation":"(Open Air)"},"geometry":{"type":"Point","coordinates":[-0.015544,51.503868],"certainty":"certain"}},{"type":"Feature","uuid":313462,"@id":"https://artuk.org/artworks/313462","properties":{"title":"Voyager","artworkType":"Sculpture","address":"Thames Path, Wapping","organisation":"(Open Air)"},"geometry":{"type":"Point","coordinates":[-0.0653014,51.5038799],"certainty":"certain"}},{"type":"Feature","uuid":312270,"@id":"https://artuk.org/artworks/312270","properties":{"title":"Kiss","artworkType":"Sculpture","address":"South Colonnade","organisation":"(Open Air)"},"geometry":{"type":"Point","coordinates":[-0.015993833,51.504135],"certainty":"certain"}},{"type":"Feature","uuid":311396,"@id":"https://artuk.org/artworks/311396","properties":{"title":"A Slice of Reality","artworkType":"Sculpture","address":"Thames Path","organisation":"(Open Air)"},"geometry":{"type":"Point","coordinates":[-0.00025346875,51.504166],"certainty":"certain"}},{"type":"Feature","uuid":312299,"@id":"https://artuk.org/artworks/312299","properties":{"title":"Cartier Circle Lighting System","artworkType":"Street furniture","address":"Cartier Circle","organisation":"(Open Air)"},"geometry":{"type":"Point","coordinates":[-0.012933612,51.504227],"certainty":"certain"}},{"type":"Feature","uuid":312300,"@id":"https://artuk.org/artworks/312300","properties":{"title":"Tandem Lovers","artworkType":"Statue","address":"Reuters Plaza","organisation":"(Open Air)"},"geometry":{"type":"Point","coordinates":[-0.019861758,51.504449],"certainty":"certain"}},{"type":"Feature","uuid":312202,"@id":"https://artuk.org/artworks/312202","properties":{"title":"Coup de Foudre II","artworkType":"Sculpture","address":"Churchill Place Mall","organisation":"(Open Air)"},"geometry":{"type":"Point","coordinates":[-0.014955998,51.504463],"certainty":"certain"}},{"type":"Feature","uuid":312301,"@id":"https://artuk.org/artworks/312301","properties":{"title":"The Clew","artworkType":"Sculpture","address":"Cubitt Bridge","organisation":"(Open Air)"},"geometry":{"type":"Point","coordinates":[-0.023102939,51.504481],"certainty":"certain"}},{"type":"Feature","uuid":312219,"@id":"https://artuk.org/artworks/312219","properties":{"title":"Lightbenches 'Classic'","artworkType":"Street furniture","address":"Canada Square Park","organisation":"(Open Air)"},"geometry":{"type":"Point","coordinates":[-0.017842,51.504541],"certainty":"certain"}},{"type":"Feature","uuid":313465,"@id":"https://artuk.org/artworks/313465","properties":{"title":"Blitz Memorial","artworkType":"War memorial","address":"The Hermitage Riverside Memorial Garden, Hermitage Quay, Wapping","organisation":"(Open Air)"},"geometry":{"type":"Point","coordinates":[-0.068038926,51.504562],"certainty":"certain"}},{"type":"Feature","uuid":312256,"@id":"https://artuk.org/artworks/312256","properties":{"title":"Twentieth Century Thames","artworkType":"Mural","address":"One Canada Square","organisation":"(Open Air)"},"geometry":{"type":"Point","coordinates":[-0.019476056,51.504944],"certainty":"certain"}},{"type":"Feature","uuid":312290,"@id":"https://artuk.org/artworks/312290","properties":{"title":"Guerrieri (Warriors)","artworkType":"Panel","address":"One Canada Square","organisation":"(Open Air)"},"geometry":{"type":"Point","coordinates":[-0.019476056,51.504944],"certainty":"certain"}},{"type":"Feature","uuid":282112,"@id":"https://artuk.org/artworks/282112","properties":{"title":"Draped Seated Woman","artworkType":"Statue","address":"Cabot Square, Canary Wharf","organisation":"(Open Air)"},"geometry":{"type":"Point","coordinates":[-0.022913226,51.505156],"certainty":"certain"}},{"type":"Feature","uuid":312212,"@id":"https://artuk.org/artworks/312212","properties":{"title":"Pattern for Democracy","artworkType":"Panel","address":"Cabot Place Mall","organisation":"(Open Air)"},"geometry":{"type":"Point","coordinates":[-0.021614,51.505188],"certainty":"certain"}},{"type":"Feature","uuid":312203,"@id":"https://artuk.org/artworks/312203","properties":{"title":"It Takes Two","artworkType":"Sculpture","address":"Cabot Square","organisation":"(Open Air)"},"geometry":{"type":"Point","coordinates":[-0.02337277,51.50519],"certainty":"certain"}},{"type":"Feature","uuid":312297,"@id":"https://artuk.org/artworks/312297","properties":{"title":"HSBC Lions","artworkType":"Statue","address":"Canada Square","organisation":"(Open Air)"},"geometry":{"type":"Point","coordinates":[-0.017981172,51.505239],"certainty":"certain"}},{"type":"Feature","uuid":312246,"@id":"https://artuk.org/artworks/312246","properties":{"title":"Vanishing Point","artworkType":"Sculpture","address":"Westferry Circus","organisation":"(Open Air)"},"geometry":{"type":"Point","coordinates":[-0.02685,51.505242],"certainty":"certain"}},{"type":"Feature","uuid":312247,"@id":"https://artuk.org/artworks/312247","properties":{"title":"Cast Glass Panels","artworkType":"Panel","address":"Cabot Square","organisation":"(Open Air)"},"geometry":{"type":"Point","coordinates":[-0.022876203,51.505314],"certainty":"certain"}},{"type":"Feature","uuid":312260,"@id":"https://artuk.org/artworks/312260","properties":{"title":"Couple on Seat","artworkType":"Sculpture","address":"Cabot Square","organisation":"(Open Air)"},"geometry":{"type":"Point","coordinates":[-0.022876203,51.505314],"certainty":"certain"}},{"type":"Feature","uuid":312222,"@id":"https://artuk.org/artworks/312222","properties":{"title":"Illusion","artworkType":"Sculpture","address":"Cabot Square","organisation":"(Open Air)"},"geometry":{"type":"Point","coordinates":[-0.023104,51.50532],"certainty":"certain"}},{"type":"Feature","uuid":312214,"@id":"https://artuk.org/artworks/312214","properties":{"title":"Man With Arms Open","artworkType":"Sculpture","address":"West India Avenue","organisation":"(Open Air)"},"geometry":{"type":"Point","coordinates":[-0.02438,51.505514],"certainty":"certain"}},{"type":"Feature","uuid":312201,"@id":"https://artuk.org/artworks/312201","properties":{"title":"Chimney","artworkType":"Sculpture","address":"West India Avenue","organisation":"(Open Air)"},"geometry":{"type":"Point","coordinates":[-0.02617,51.505522],"certainty":"certain"}},{"type":"Feature","uuid":312213,"@id":"https://artuk.org/artworks/312213","properties":{"title":"Michael von Clemm (1935–1997)","artworkType":"Medallion","address":"Cabot Square","organisation":"(Open Air)"},"geometry":{"type":"Point","coordinates":[-0.023294,51.505541],"certainty":"certain"}},{"type":"Feature","uuid":312245,"@id":"https://artuk.org/artworks/312245","properties":{"title":"Cabot Square Railings","artworkType":"Street furniture","address":"Cabot Square","organisation":"(Open Air)"},"geometry":{"type":"Point","coordinates":[-0.023294,51.505541],"certainty":"certain"}},{"type":"Feature","uuid":312205,"@id":"https://artuk.org/artworks/312205","properties":{"title":"Captivated by Colour","artworkType":"Mural","address":"Adams Plaza","organisation":"(Open Air)"},"geometry":{"type":"Point","coordinates":[-0.019188524,51.505619],"certainty":"certain"}},{"type":"Feature","uuid":313468,"@id":"https://artuk.org/artworks/313468","properties":{"title":"Rope Circle","artworkType":"Sculpture","address":"Hermitage Basin, Vaughan Way","organisation":"(Open Air)"},"geometry":{"type":"Point","coordinates":[-0.066811144,51.505701],"certainty":"certain"}},{"type":"Feature","uuid":312249,"@id":"https://artuk.org/artworks/312249","properties":{"title":"Returning to Embrace","artworkType":"Sculpture","address":"Wren Landing, Cabot Square","organisation":"(Open Air)"},"geometry":{"type":"Point","coordinates":[-0.022661,51.505712],"certainty":"certain"}},{"type":"Feature","uuid":312278,"@id":"https://artuk.org/artworks/312278","properties":{"title":"Bronze Bowls","artworkType":"Street furniture","address":"Wren Landing, Cabot Square","organisation":"(Open Air)"},"geometry":{"type":"Point","coordinates":[-0.022661,51.505712],"certainty":"certain"}},{"type":"Feature","uuid":312237,"@id":"https://artuk.org/artworks/312237","properties":{"title":"Growth Form","artworkType":"Sculpture","address":"Westferry Circus","organisation":"(Open Air)"},"geometry":{"type":"Point","coordinates":[-0.026625,51.505752],"certainty":"certain"}},{"type":"Feature","uuid":312216,"@id":"https://artuk.org/artworks/312216","properties":{"title":"Two Men on a Bench","artworkType":"Sculpture","address":"Wren Landing","organisation":"(Open Air)"},"geometry":{"type":"Point","coordinates":[-0.022864223,51.505761],"certainty":"certain"}},{"type":"Feature","uuid":312208,"@id":"https://artuk.org/artworks/312208","properties":{"title":"Sasso Cosmico","artworkType":"Sculpture","address":"Westferry Circus","organisation":"(Open Air)"},"geometry":{"type":"Point","coordinates":[-0.02710104,51.505776],"certainty":"certain"}},{"type":"Feature","uuid":312287,"@id":"https://artuk.org/artworks/312287","properties":{"title":"Windwand","artworkType":"Sculpture","address":"Canary Riverside","organisation":"(Open Air)"},"geometry":{"type":"Point","coordinates":[-0.028149784,51.505793],"certainty":"certain"}},{"type":"Feature","uuid":312218,"@id":"https://artuk.org/artworks/312218","properties":{"title":"Gate and Sculptural Railings","artworkType":"Street furniture","address":"Westferry Circus","organisation":"(Open Air)"},"geometry":{"type":"Point","coordinates":[-0.027243,51.505803],"certainty":"certain"}},{"type":"Feature","uuid":312198,"@id":"https://artuk.org/artworks/312198","properties":{"title":"London Joint City and Midland Bank War Memorial","artworkType":"War memorial","address":"Crossrail Place, Upper Bank Street","organisation":"(Open Air)"},"geometry":{"type":"Point","coordinates":[-0.017742,51.505807],"certainty":"certain"}},{"type":"Feature","uuid":312199,"@id":"https://artuk.org/artworks/312199","properties":{"title":"Midland Bank Staff Memorial","artworkType":"War memorial","address":"Crossrail Place, Upper Bank Street","organisation":"(Open Air)"},"geometry":{"type":"Point","coordinates":[-0.017742,51.505807],"certainty":"certain"}},{"type":"Feature","uuid":313469,"@id":"https://artuk.org/artworks/313469","properties":{"title":"John Rennie the Elder (1761–1821)","artworkType":"Bust","address":"Spirit Quay","organisation":"(Open Air)"},"geometry":{"type":"Point","coordinates":[-0.062417686,51.505814],"certainty":"certain"}},{"type":"Feature","uuid":312264,"@id":"https://artuk.org/artworks/312264","properties":{"title":"Unity of Opposites: Vortex","artworkType":"Sculpture","address":"Adams Plaza","organisation":"(Open Air)"},"geometry":{"type":"Point","coordinates":[-0.019232155,51.505819],"certainty":"certain"}},{"type":"Feature","uuid":312286,"@id":"https://artuk.org/artworks/312286","properties":{"title":"Avatar","artworkType":"Sculpture","address":"Westferry Circus","organisation":"(Open Air)"},"geometry":{"type":"Point","coordinates":[-0.025903,51.505905],"certainty":"certain"}},{"type":"Feature","uuid":312275,"@id":"https://artuk.org/artworks/312275","properties":{"title":"Skystation","artworkType":"Street furniture","address":"Adams Plaza","organisation":"(Open Air)"},"geometry":{"type":"Point","coordinates":[-0.019446731,51.505924],"certainty":"certain"}},{"type":"Feature","uuid":312262,"@id":"https://artuk.org/artworks/312262","properties":{"title":"We Could Meet","artworkType":"Sculpture","address":"Crossrail Place, Quayside","organisation":"(Open Air)"},"geometry":{"type":"Point","coordinates":[-0.018290878,51.505973],"certainty":"certain"}},{"type":"Feature","uuid":312253,"@id":"https://artuk.org/artworks/312253","properties":{"title":"Origin (Vertical)","artworkType":"Sculpture","address":"Crossrail Place Roof Garden","organisation":"(Open Air)"},"geometry":{"type":"Point","coordinates":[-0.017017722,51.506012],"certainty":"certain"}},{"type":"Feature","uuid":312204,"@id":"https://artuk.org/artworks/312204","properties":{"title":"Sculptural Railings","artworkType":"Street furniture","address":"Wren Landing","organisation":"(Open Air)"},"geometry":{"type":"Point","coordinates":[-0.022601,51.506029],"certainty":"certain"}},{"type":"Feature","uuid":312229,"@id":"https://artuk.org/artworks/312229","properties":{"title":"Meridiana","artworkType":"Sculpture","address":"Westferry Circus","organisation":"(Open Air)"},"geometry":{"type":"Point","coordinates":[-0.026166,51.506078],"certainty":"certain"}},{"type":"Feature","uuid":312265,"@id":"https://artuk.org/artworks/312265","properties":{"title":"Shepherd of the Sun","artworkType":"Sculpture","address":"Crossrail Place Roof Garden","organisation":"(Open Air)"},"geometry":{"type":"Point","coordinates":[-0.018058,51.506104],"certainty":"certain"}},{"type":"Feature","uuid":313460,"@id":"https://artuk.org/artworks/313460","properties":{"title":"Timepiece","artworkType":"Sculpture","address":"St Katharine Way","organisation":"(Open Air)"},"geometry":{"type":"Point","coordinates":[-0.072598346,51.50611],"certainty":"certain"}},{"type":"Feature","uuid":312232,"@id":"https://artuk.org/artworks/312232","properties":{"title":"Mysteries","artworkType":"Sculpture","address":"Westferry Circus","organisation":"(Open Air)"},"geometry":{"type":"Point","coordinates":[-0.026253,51.506158],"certainty":"certain"}},{"type":"Feature","uuid":313456,"@id":"https://artuk.org/artworks/313456","properties":{"title":"Anglo-Dutch Friendship Plaque (William III)","artworkType":"Relief","address":"Dock Master House, St Katharine Dock","organisation":"(Open Air)"},"geometry":{"type":"Point","coordinates":[-0.072070956,51.506165],"certainty":"certain"}},{"type":"Feature","uuid":312241,"@id":"https://artuk.org/artworks/312241","properties":{"title":"Centurione I","artworkType":"Sculpture","address":"Columbus Courtyard","organisation":"(Open Air)"},"geometry":{"type":"Point","coordinates":[-0.025695,51.506182],"certainty":"certain"}},{"type":"Feature","uuid":312295,"@id":"https://artuk.org/artworks/312295","properties":{"title":"Planters","artworkType":"Street furniture","address":"Columbus Courtyard","organisation":"(Open Air)"},"geometry":{"type":"Point","coordinates":[-0.025695,51.506182],"certainty":"certain"}},{"type":"Feature","uuid":312234,"@id":"https://artuk.org/artworks/312234","properties":{"title":"Spirit of Life","artworkType":"Sculpture","address":"Westferry Circus","organisation":"(Open Air)"},"geometry":{"type":"Point","coordinates":[-0.026468039,51.50619],"certainty":"certain"}},{"type":"Feature","uuid":312273,"@id":"https://artuk.org/artworks/312273","properties":{"title":"Turning Point","artworkType":"Sculpture","address":"Columbus Courtyard","organisation":"(Open Air)"},"geometry":{"type":"Point","coordinates":[-0.025608,51.506199],"certainty":"certain"}},{"type":"Feature","uuid":312271,"@id":"https://artuk.org/artworks/312271","properties":{"title":"Opening Lines","artworkType":"Sculpture","address":"Columbus Courtyard","organisation":"(Open Air)"},"geometry":{"type":"Point","coordinates":[-0.025312,51.506224],"certainty":"certain"}},{"type":"Feature","uuid":313459,"@id":"https://artuk.org/artworks/313459","properties":{"title":"Girl with a Dolphin","artworkType":"Water fountain, trough or pump","address":"St Katharine Way","organisation":"(Open Air)"},"geometry":{"type":"Point","coordinates":[-0.073721618,51.506254003],"certainty":"certain"}},{"type":"Feature","uuid":312235,"@id":"https://artuk.org/artworks/312235","properties":{"title":"Taking Risks","artworkType":"Sculpture","address":"Westferry Circus","organisation":"(Open Air)"},"geometry":{"type":"Point","coordinates":[-0.026773,51.506293],"certainty":"certain"}},{"type":"Feature","uuid":312296,"@id":"https://artuk.org/artworks/312296","properties":{"title":"Columbus Screen","artworkType":"Panel","address":"Columbus Courtyard","organisation":"(Open Air)"},"geometry":{"type":"Point","coordinates":[-0.025368,51.506529],"certainty":"certain"}},{"type":"Feature","uuid":313461,"@id":"https://artuk.org/artworks/313461","properties":{"title":"Exotic Birds, Oriental Carpet, to the Sea","artworkType":"Sculpture","address":"Marble Quay, St Katharine Dock","organisation":"(Open Air)"},"geometry":{"type":"Point","coordinates":[-0.070787,51.50657],"certainty":"certain"}},{"type":"Feature","uuid":313470,"@id":"https://artuk.org/artworks/313470","properties":{"title":"Bluecoat Boy and Girl","artworkType":"Statue","address":"Raine's House, Raine Street","organisation":"(Open Air)"},"geometry":{"type":"Point","coordinates":[-0.057994351,51.506677],"certainty":"certain"}},{"type":"Feature","uuid":313458,"@id":"https://artuk.org/artworks/313458","properties":{"title":"Enamel Panels","artworkType":"Panel","address":"Cloister Walk, St Katharine Dock","organisation":"(Open Air)"},"geometry":{"type":"Point","coordinates":[-0.073249,51.506802],"certainty":"certain"}},{"type":"Feature","uuid":312258,"@id":"https://artuk.org/artworks/312258","properties":{"title":"The Hibbert Gate","artworkType":"Gateway","address":"Fisherman's Walk","organisation":"(Open Air)"},"geometry":{"type":"Point","coordinates":[-0.024344087,51.506815],"certainty":"certain"}},{"type":"Feature","uuid":313454,"@id":"https://artuk.org/artworks/313454","properties":{"title":"Anchor of the 'Amsterdam'","artworkType":"Readymade","address":"St Katharine Dock","organisation":"(Open Air)"},"geometry":{"type":"Point","coordinates":[-0.070723146,51.506858],"certainty":"certain"}},{"type":"Feature","uuid":313457,"@id":"https://artuk.org/artworks/313457","properties":{"title":"Silver Jubilee Crystal Crown","artworkType":"Relief","address":"Tower Hotel","organisation":"(Open Air)"},"geometry":{"type":"Point","coordinates":[-0.072713345,51.50702],"certainty":"certain"}},{"type":"Feature","uuid":313463,"@id":"https://artuk.org/artworks/313463","properties":{"title":"To Meet Again","artworkType":"Sculpture","address":"Moretown, Thomas More Street","organisation":"(Open Air)"},"geometry":{"type":"Point","coordinates":[-0.067617148,51.507046],"certainty":"certain"}},{"type":"Feature","uuid":313442,"@id":"https://artuk.org/artworks/313442","properties":{"title":"Compass (Meridian Marker)","artworkType":"Panel","address":"Prime Meridian Way, Virginia Quay","organisation":"(Open Air)"},"geometry":{"type":"Point","coordinates":[-0.0015898767,51.507551],"certainty":"certain"}},{"type":"Feature","uuid":313453,"@id":"https://artuk.org/artworks/313453","properties":{"title":"Marine Shells","artworkType":"Sculpture","address":"The Ivory House, St Katharine Dock","organisation":"(Open Air)"},"geometry":{"type":"Point","coordinates":[-0.071168,51.507708],"certainty":"certain"}},{"type":"Feature","uuid":313452,"@id":"https://artuk.org/artworks/313452","properties":{"title":"Crumpled Papers","artworkType":"Sculpture","address":"Star Place, St Katharine Dock","organisation":"(Open Air)"},"geometry":{"type":"Point","coordinates":[-0.068975,51.507713],"certainty":"certain"}},{"type":"Feature","uuid":313467,"@id":"https://artuk.org/artworks/313467","properties":{"title":"Boars Heads and Barrels","artworkType":"Sculpture","address":"Tobacco Dock, Wapping Lane","organisation":"(Open Air)"},"geometry":{"type":"Point","coordinates":[-0.05867899,51.50780248],"certainty":"certain"}},{"type":"Feature","uuid":313466,"@id":"https://artuk.org/artworks/313466","properties":{"title":"Angel Musician","artworkType":"Statue","address":"Moretown, Thomas More Street","organisation":"(Open Air)"},"geometry":{"type":"Point","coordinates":[-0.06786876,51.507875],"certainty":"certain"}},{"type":"Feature","uuid":313443,"@id":"https://artuk.org/artworks/313443","properties":{"title":"Virginia Quay Settlers Monument","artworkType":"Monument","address":"Jamestown Way, Virginia Quay","organisation":"(Open Air)"},"geometry":{"type":"Point","coordinates":[0.0003567338,51.507911],"certainty":"certain"}},{"type":"Feature","uuid":313451,"@id":"https://artuk.org/artworks/313451","properties":{"title":"Saint Katharine by the Tower Bollards","artworkType":"Street furniture","address":"Sun Walk, St Katharine Dock","organisation":"(Open Air)"},"geometry":{"type":"Point","coordinates":[-0.069731729,51.507943],"certainty":"certain"}},{"type":"Feature","uuid":313455,"@id":"https://artuk.org/artworks/313455","properties":{"title":"Elephants","artworkType":"Gateway","address":"The Highway, East Smithfield","organisation":"(Open Air)"},"geometry":{"type":"Point","coordinates":[-0.07108018,51.5082165],"certainty":"certain"}},{"type":"Feature","uuid":313464,"@id":"https://artuk.org/artworks/313464","properties":{"title":"Goose","artworkType":"Statue","address":"Moretown, Thomas More Street","organisation":"(Open Air)"},"geometry":{"type":"Point","coordinates":[-0.067849046,51.508441],"certainty":"certain"}},{"type":"Feature","uuid":313491,"@id":"https://artuk.org/artworks/313491","properties":{"title":"Navigators' Memorial","artworkType":"Mural","address":"King Edward Memorial Park, The Highway","organisation":"(Open Air)"},"geometry":{"type":"Point","coordinates":[-0.048479587,51.508612],"certainty":"certain"}},{"type":"Feature","uuid":313487,"@id":"https://artuk.org/artworks/313487","properties":{"title":"Tower Hill Memorial: First World War","artworkType":"War memorial","address":"Trinity Square Gardens","organisation":"(Open Air)"},"geometry":{"type":"Point","coordinates":[-0.077658668,51.509567],"certainty":"certain"}},{"type":"Feature","uuid":313433,"@id":"https://artuk.org/artworks/313433","properties":{"title":"Poplar Rates Rebellion Mural","artworkType":"Mural","address":"Hale Street","organisation":"(Open Air)"},"geometry":{"type":"Point","coordinates":[-0.017603,51.509581],"certainty":"certain"}},{"type":"Feature","uuid":313440,"@id":"https://artuk.org/artworks/313440","properties":{"title":"East India Dock History Reliefs","artworkType":"Relief","address":"Clove Crescent","organisation":"(Open Air)"},"geometry":{"type":"Point","coordinates":[-0.0063744187,51.509584],"certainty":"certain"}},{"type":"Feature","uuid":313471,"@id":"https://artuk.org/artworks/313471","properties":{"title":"Edward VII Memorial Drinking Fountain","artworkType":"Water fountain, trough or pump","address":"King Edward VII Memorial Park, The Highway","organisation":"(Open Air)"},"geometry":{"type":"Point","coordinates":[-0.048455447,51.509599],"certainty":"certain"}},{"type":"Feature","uuid":313438,"@id":"https://artuk.org/artworks/313438","properties":{"title":"The Domino Players","artworkType":"Statue","address":"Lighterman House, Clove Crescent","organisation":"(Open Air)"},"geometry":{"type":"Point","coordinates":[-0.00548587,51.509622],"certainty":"certain"}},{"type":"Feature","uuid":313485,"@id":"https://artuk.org/artworks/313485","properties":{"title":"The Building Worker","artworkType":"Statue","address":"Tower Hill","organisation":"(Open Air)"},"geometry":{"type":"Point","coordinates":[-0.075280219,51.509631],"certainty":"certain"}},{"type":"Feature","uuid":313448,"@id":"https://artuk.org/artworks/313448","properties":{"title":"Elektron","artworkType":"Sculpture","address":"Elektron Tower, Blackwall Way","organisation":"(Open Air)"},"geometry":{"type":"Point","coordinates":[-0.001647,51.509641],"certainty":"certain"}},{"type":"Feature","uuid":313489,"@id":"https://artuk.org/artworks/313489","properties":{"title":"Falklands War Memorial (Time and Distance)","artworkType":"War memorial","address":"Trinity Square Gardens","organisation":"(Open Air)"},"geometry":{"type":"Point","coordinates":[-0.077069923,51.509684],"certainty":"certain"}},{"type":"Feature","uuid":313484,"@id":"https://artuk.org/artworks/313484","properties":{"title":"Sundial","artworkType":"Street furniture","address":"Wakefield Gardens","organisation":"(Open Air)"},"geometry":{"type":"Point","coordinates":[-0.076512024,51.509818],"certainty":"certain"}},{"type":"Feature","uuid":313488,"@id":"https://artuk.org/artworks/313488","properties":{"title":"Tower Hill Memorial: Second World War Extension","artworkType":"War memorial","address":"Trinity Square Gardens","organisation":"(Open Air)"},"geometry":{"type":"Point","coordinates":[-0.077676103,51.509839],"certainty":"certain"}},{"type":"Feature","uuid":313483,"@id":"https://artuk.org/artworks/313483","properties":{"title":"Trajan","artworkType":"Statue","address":"Wakefield Gardens","organisation":"(Open Air)"},"geometry":{"type":"Point","coordinates":[-0.07615529,51.509885],"certainty":"certain"}},{"type":"Feature","uuid":313490,"@id":"https://artuk.org/artworks/313490","properties":{"title":"The Port of London Authority Building","artworkType":"Building","address":"Four Seasons Hotel, 10 Trinity Square","organisation":"(Open Air)"},"geometry":{"type":"Point","coordinates":[-0.077925,51.510153],"certainty":"certain"}},{"type":"Feature","uuid":313486,"@id":"https://artuk.org/artworks/313486","properties":{"title":"Viscount Wakefield","artworkType":"Relief","address":"Trinity Square","organisation":"(Open Air)"},"geometry":{"type":"Point","coordinates":[-0.076752082,51.510363],"certainty":"certain"}},{"type":"Feature","uuid":313439,"@id":"https://artuk.org/artworks/313439","properties":{"title":"Shadow Play","artworkType":"Sculpture","address":"Mulberry Place","organisation":"(Open Air)"},"geometry":{"type":"Point","coordinates":[-0.005927,51.510369],"certainty":"certain"}},{"type":"Feature","uuid":313434,"@id":"https://artuk.org/artworks/313434","properties":{"title":"War Memorial to the Children of Upper North Street School","artworkType":"War memorial","address":"Poplar Recreation Ground","organisation":"(Open Air)"},"geometry":{"type":"Point","coordinates":[-0.016675293,51.510592],"certainty":"certain"}},{"type":"Feature","uuid":313447,"@id":"https://artuk.org/artworks/313447","properties":{"title":"Restless Dream","artworkType":"Mural","address":"Limehouse Link Tunnel","organisation":"(Open Air)"},"geometry":{"type":"Point","coordinates":[-0.040281,51.510771],"certainty":"certain"}},{"type":"Feature","uuid":313444,"@id":"https://artuk.org/artworks/313444","properties":{"title":"Richard Green (1803–1863)","artworkType":"Statue","address":"East India Dock Road","organisation":"(Open Air)"},"geometry":{"type":"Point","coordinates":[-0.015629232,51.510993],"certainty":"certain"}},{"type":"Feature","uuid":313446,"@id":"https://artuk.org/artworks/313446","properties":{"title":"Limehouse War Memorial","artworkType":"War memorial","address":"St James' Gardens, Butcher Row","organisation":"(Open Air)"},"geometry":{"type":"Point","coordinates":[-0.041548,51.510994],"certainty":"certain"}},{"type":"Feature","uuid":313428,"@id":"https://artuk.org/artworks/313428","properties":{"title":"Battle of Cable Street","artworkType":"Mural","address":"St George's Park, Cable Street","organisation":"(Open Air)"},"geometry":{"type":"Point","coordinates":[-0.058677346,51.511008],"certainty":"certain"}},{"type":"Feature","uuid":313445,"@id":"https://artuk.org/artworks/313445","properties":{"title":"George Green Memorial Clock","artworkType":"Clock tower","address":"East India Dock Road","organisation":"(Open Air)"},"geometry":{"type":"Point","coordinates":[-0.016090131,51.511149],"certainty":"certain"}},{"type":"Feature","uuid":313449,"@id":"https://artuk.org/artworks/313449","properties":{"title":"East India Dock Commemorative Plaque","artworkType":"Panel","address":"East India Docks, Blackwall Tunnel Northern Approach","organisation":"(Open Air)"},"geometry":{"type":"Point","coordinates":[-0.0070017,51.5112],"certainty":"certain"}},{"type":"Feature","uuid":313436,"@id":"https://artuk.org/artworks/313436","properties":{"title":"Chrisp Street Market Fountain","artworkType":"Water fountain, trough or pump","address":"Kilmore Square, Chrisp Street Market","organisation":"(Open Air)"},"geometry":{"type":"Point","coordinates":[-0.014433502,51.511362],"certainty":"certain"}},{"type":"Feature","uuid":313432,"@id":"https://artuk.org/artworks/313432","properties":{"title":"The Goodman's Fields Horses","artworkType":"Equestrian","address":"Goodmans Fields","organisation":"(Open Air)"},"geometry":{"type":"Point","coordinates":[-0.070099533,51.513366],"certainty":"certain"}},{"type":"Feature","uuid":313482,"@id":"https://artuk.org/artworks/313482","properties":{"title":"Spitalfields Column","artworkType":"Obelisk","address":"Middlesex Street","organisation":"(Open Air)"},"geometry":{"type":"Point","coordinates":[-0.074718297,51.515102],"certainty":"certain"}},{"type":"Feature","uuid":313435,"@id":"https://artuk.org/artworks/313435","properties":{"title":"Teddy Baldock (1907–1971) – Alfred Stephen Baldock, 'The Pride of Poplar'","artworkType":"Statue","address":"Langdon Park","organisation":"(Open Air)"},"geometry":{"type":"Point","coordinates":[-0.013698041,51.515506],"certainty":"certain"}},{"type":"Feature","uuid":313437,"@id":"https://artuk.org/artworks/313437","properties":{"title":"War Memorial","artworkType":"War memorial","address":"St Leonards Road","organisation":"(Open Air)"},"geometry":{"type":"Point","coordinates":[-0.011397,51.515868],"certainty":"certain"}},{"type":"Feature","uuid":313431,"@id":"https://artuk.org/artworks/313431","properties":{"title":"Shaheed Minar Martyrs' Memorial","artworkType":"Monument","address":"Altab Ali Park, White Church Lane","organisation":"(Open Air)"},"geometry":{"type":"Point","coordinates":[-0.068671256,51.515892],"certainty":"certain"}},{"type":"Feature","uuid":308972,"@id":"https://artuk.org/artworks/308972","properties":{"title":"Queen Alexandra (1844–1925)","artworkType":"Statue","address":"Royal London Hospital, Stepney Way","organisation":"(Open Air)"},"geometry":{"type":"Point","coordinates":[-0.059289,51.517629],"certainty":"certain"}},{"type":"Feature","uuid":313426,"@id":"https://artuk.org/artworks/313426","properties":{"title":"Leonard Montefiore Drinking Fountain","artworkType":"Water fountain, trough or pump","address":"Stepney Green","organisation":"(Open Air)"},"geometry":{"type":"Point","coordinates":[-0.045947582,51.518544],"certainty":"certain"}},{"type":"Feature","uuid":313429,"@id":"https://artuk.org/artworks/313429","properties":{"title":"Brick Lane Minaret","artworkType":"Sculpture","address":"Jamme Masjid Mosque, Brick Lane","organisation":"(Open Air)"},"geometry":{"type":"Point","coordinates":[-0.07151641,51.518594],"certainty":"certain"}},{"type":"Feature","uuid":312192,"@id":"https://artuk.org/artworks/312192","properties":{"title":"Virgin Mary (possibly Virgin of Mercy)","artworkType":"Statue","address":"Lillian Knowles House","organisation":"(Open Air)"},"geometry":{"type":"Point","coordinates":[-0.07649526,51.518596],"certainty":"certain"}},{"type":"Feature","uuid":313418,"@id":"https://artuk.org/artworks/313418","properties":{"title":"Clock Tower","artworkType":"Clock tower","address":"Stepney Green","organisation":"(Open Air)"},"geometry":{"type":"Point","coordinates":[-0.046410263,51.518658],"certainty":"certain"}},{"type":"Feature","uuid":312190,"@id":"https://artuk.org/artworks/312190","properties":{"title":"Mosaic","artworkType":"Mural","address":"Brushfield Street","organisation":"(Open Air)"},"geometry":{"type":"Point","coordinates":[-0.075984299,51.518971],"certainty":"certain"}},{"type":"Feature","uuid":313419,"@id":"https://artuk.org/artworks/313419","properties":{"title":"Pipes of Gas Works","artworkType":"Readymade","address":"Horsely Court, Candle Street","organisation":"(Open Air)"},"geometry":{"type":"Point","coordinates":[-0.038263053,51.51901],"certainty":"certain"}},{"type":"Feature","uuid":312187,"@id":"https://artuk.org/artworks/312187","properties":{"title":"I Goat","artworkType":"Sculpture","address":"Brushfield Street","organisation":"(Open Air)"},"geometry":{"type":"Point","coordinates":[-0.077887326,51.519078],"certainty":"certain"}},{"type":"Feature","uuid":312191,"@id":"https://artuk.org/artworks/312191","properties":{"title":"Pear and Fig","artworkType":"Sculpture","address":"Brushfield Street","organisation":"(Open Air)"},"geometry":{"type":"Point","coordinates":[-0.077713653,51.519079],"certainty":"certain"}},{"type":"Feature","uuid":313427,"@id":"https://artuk.org/artworks/313427","properties":{"title":"Edward VII Jewish Memorial Drinking Fountain","artworkType":"Water fountain, trough or pump","address":"Whitechapel Road","organisation":"(Open Air)"},"geometry":{"type":"Point","coordinates":[-0.060375184,51.519108],"certainty":"certain"}},{"type":"Feature","uuid":312193,"@id":"https://artuk.org/artworks/312193","properties":{"title":"Wooden Boat with Seven People","artworkType":"Statue","address":"Brushfield Street","organisation":"(Open Air)"},"geometry":{"type":"Point","coordinates":[-0.077099428,51.519111],"certainty":"certain"}},{"type":"Feature","uuid":312189,"@id":"https://artuk.org/artworks/312189","properties":{"title":"Rabbitwoman and Dogman Drinking Coffee","artworkType":"Statue","address":"Bishops Square","organisation":"(Open Air)"},"geometry":{"type":"Point","coordinates":[-0.077631846,51.519426],"certainty":"certain"}},{"type":"Feature","uuid":312194,"@id":"https://artuk.org/artworks/312194","properties":{"title":"Public Space Boards","artworkType":"Sign or marker","address":"Bishops Square","organisation":"(Open Air)"},"geometry":{"type":"Point","coordinates":[-0.077715665,51.519939],"certainty":"certain"}},{"type":"Feature","uuid":313424,"@id":"https://artuk.org/artworks/313424","properties":{"title":"William Booth (1829–1912)","artworkType":"Bust","address":"Mile End Road","organisation":"(Open Air)"},"geometry":{"type":"Point","coordinates":[-0.055729598,51.520038],"certainty":"certain"}},{"type":"Feature","uuid":312188,"@id":"https://artuk.org/artworks/312188","properties":{"title":"Together Forever on Wheels","artworkType":"Statue","address":"Bishops Square","organisation":"(Open Air)"},"geometry":{"type":"Point","coordinates":[-0.077473596,51.520061],"certainty":"certain"}},{"type":"Feature","uuid":312195,"@id":"https://artuk.org/artworks/312195","properties":{"title":"Frame Break","artworkType":"Sculpture","address":"Spitalfields","organisation":"(Open Air)"},"geometry":{"type":"Point","coordinates":[-0.077713653,51.52009],"certainty":"certain"}},{"type":"Feature","uuid":312186,"@id":"https://artuk.org/artworks/312186","properties":{"title":"Vortex","artworkType":"Sculpture","address":"Lamb Street","organisation":"(Open Air)"},"geometry":{"type":"Point","coordinates":[-0.075319111,51.520327],"certainty":"certain"}},{"type":"Feature","uuid":313420,"@id":"https://artuk.org/artworks/313420","properties":{"title":"William Booth (1829–1912)","artworkType":"Statue","address":"Mile End Road","organisation":"(Open Air)"},"geometry":{"type":"Point","coordinates":[-0.05419001,51.520373],"certainty":"certain"}},{"type":"Feature","uuid":313421,"@id":"https://artuk.org/artworks/313421","properties":{"title":"Catherine Booth (1829–1890)","artworkType":"Statue","address":"Mile End Road","organisation":"(Open Air)"},"geometry":{"type":"Point","coordinates":[-0.05419001,51.520373],"certainty":"certain"}},{"type":"Feature","uuid":313422,"@id":"https://artuk.org/artworks/313422","properties":{"title":"Trinity Green Almshouses (Ships)","artworkType":"Building","address":"Mile End Road","organisation":"(Open Air)"},"geometry":{"type":"Point","coordinates":[-0.054777414,51.520435],"certainty":"certain"}},{"type":"Feature","uuid":313425,"@id":"https://artuk.org/artworks/313425","properties":{"title":"Mural","artworkType":"Mural","address":"Mile End Road","organisation":"(Open Air)"},"geometry":{"type":"Point","coordinates":[-0.054777414,51.520435],"certainty":"certain"}},{"type":"Feature","uuid":313423,"@id":"https://artuk.org/artworks/313423","properties":{"title":"Edward VII (1841–1910)","artworkType":"Bust","address":"Mile End Road","organisation":"(Open Air)"},"geometry":{"type":"Point","coordinates":[-0.053699166,51.520595],"certainty":"certain"}},{"type":"Feature","uuid":313430,"@id":"https://artuk.org/artworks/313430","properties":{"title":"Truman Brewery Black Eagle","artworkType":"Relief","address":"Brick Lane","organisation":"(Open Air)"},"geometry":{"type":"Point","coordinates":[-0.071852356,51.520884],"certainty":"certain"}},{"type":"Feature","uuid":313472,"@id":"https://artuk.org/artworks/313472","properties":{"title":"Stairway to Heaven (The Bethnal Green Tube Disaster Memorial)","artworkType":"War memorial","address":"Cambridge Heath Road","organisation":"(Open Air)"},"geometry":{"type":"Point","coordinates":[-0.05510062,51.527216],"certainty":"certain"}},{"type":"Feature","uuid":313477,"@id":"https://artuk.org/artworks/313477","properties":{"title":"Alice Maud Denman and Peter Regelous Memorial Drinking Fountain","artworkType":"Water fountain, trough or pump","address":"Victoria Park Gardens, Cambridge Heath Road","organisation":"(Open Air)"},"geometry":{"type":"Point","coordinates":[-0.055177,51.527914],"certainty":"certain"}},{"type":"Feature","uuid":313479,"@id":"https://artuk.org/artworks/313479","properties":{"title":"Industry Reliefs and Docklands Mosaics","artworkType":"Relief","address":"Bow Road / Fairfield Road","organisation":"(Open Air)"},"geometry":{"type":"Point","coordinates":[-0.019660592,51.528344],"certainty":"certain"}},{"type":"Feature","uuid":313480,"@id":"https://artuk.org/artworks/313480","properties":{"title":"William Ewart Gladstone (1809–1898)","artworkType":"Statue","address":"St Mary's Church, Bow Road","organisation":"(Open Air)"},"geometry":{"type":"Point","coordinates":[-0.017898381,51.528437],"certainty":"certain"}},{"type":"Feature","uuid":313478,"@id":"https://artuk.org/artworks/313478","properties":{"title":"Saint Margaret Plaque","artworkType":"Relief","address":"St Judes Road / Middleton Street","organisation":"(Open Air)"},"geometry":{"type":"Point","coordinates":[-0.057426,51.529481],"certainty":"certain"}},{"type":"Feature","uuid":313450,"@id":"https://artuk.org/artworks/313450","properties":{"title":"Bow Roundabout Sculpture","artworkType":"Sign or marker","address":"Bow Roundabout","organisation":"(Open Air)"},"geometry":{"type":"Point","coordinates":[-0.014062822,51.529719],"certainty":"certain"}},{"type":"Feature","uuid":313473,"@id":"https://artuk.org/artworks/313473","properties":{"title":"Blind Beggar and his Dog","artworkType":"Statue","address":"Roman Road","organisation":"(Open Air)"},"geometry":{"type":"Point","coordinates":[-0.044929683,51.529902],"certainty":"certain"}},{"type":"Feature","uuid":313474,"@id":"https://artuk.org/artworks/313474","properties":{"title":"Globe Town Arches","artworkType":"Sign or marker","address":"Mace Street / Cephas Street","organisation":"(Open Air)"},"geometry":{"type":"Point","coordinates":[-0.044060647,51.530079],"certainty":"certain"}},{"type":"Feature","uuid":313476,"@id":"https://artuk.org/artworks/313476","properties":{"title":"Charity","artworkType":"Statue","address":"Town Hall Hotel & Apartments, 8, Patriot Square","organisation":"(Open Air)"},"geometry":{"type":"Point","coordinates":[-0.056075857,51.530376],"certainty":"certain"}},{"type":"Feature","uuid":313475,"@id":"https://artuk.org/artworks/313475","properties":{"title":"The Blind Beggar and his Dog","artworkType":"Relief","address":"Town Hall Hotel & Apartments, 8 Patriot Square","organisation":"(Open Air)"},"geometry":{"type":"Point","coordinates":[-0.055142,51.53061],"certainty":"certain"}},{"type":"Feature","uuid":313481,"@id":"https://artuk.org/artworks/313481","properties":{"title":"Decorative Fence and Wall","artworkType":"Street furniture","address":"Old Ford Primary School, Roman Road","organisation":"(Open Air)"},"geometry":{"type":"Point","coordinates":[-0.031304061,51.532652],"certainty":"certain"}},{"type":"Feature","uuid":135193,"@id":"https://artuk.org/artworks/135193","properties":{"title":"The Stonemason's Yard","artworkType":"Painting","address":"Barts and The London Queen Mary School of Medicine and Dentistry, Garrod Building, Turner Street, Whitechapel","organisation":"Barts and The London Queen Mary School of Medicine and Dentistry"},"geometry":{"type":"Point","coordinates":[-0.061456,51.51656],"certainty":"certain"}},{"type":"Feature","uuid":133306,"@id":"https://artuk.org/artworks/133306","properties":{"title":"Ifor Evans, MA, Principal of Queen Mary College (1944–1951)","artworkType":"Painting","address":"Queen Mary, University of London, Mile End Road","organisation":"Queen Mary, University of London"},"geometry":{"type":"Point","coordinates":[-0.0403745,51.5240671],"certainty":"certain"}},{"type":"Feature","uuid":133307,"@id":"https://artuk.org/artworks/133307","properties":{"title":"Sir Harry W. Melville, Principal of Queen Mary College (1967–1976)","artworkType":"Painting","address":"Queen Mary, University of London, Mile End Road","organisation":"Queen Mary, University of London"},"geometry":{"type":"Point","coordinates":[-0.0403745,51.5240671],"certainty":"certain"}},{"type":"Feature","uuid":133308,"@id":"https://artuk.org/artworks/133308","properties":{"title":"Professor Graham Zellick, Principal of Queen Mary and Westfield College (1990–1998)","artworkType":"Painting","address":"Queen Mary, University of London, Mile End Road","organisation":"Queen Mary, University of London"},"geometry":{"type":"Point","coordinates":[-0.0403745,51.5240671],"certainty":"certain"}},{"type":"Feature","uuid":133309,"@id":"https://artuk.org/artworks/133309","properties":{"title":"Sir James Menter, Principal of Queen Mary College (1976–1986)","artworkType":"Painting","address":"Queen Mary, University of London, Mile End Road","organisation":"Queen Mary, University of London"},"geometry":{"type":"Point","coordinates":[-0.0403745,51.5240671],"certainty":"certain"}},{"type":"Feature","uuid":133310,"@id":"https://artuk.org/artworks/133310","properties":{"title":"Miss Kathleen Chesney, Principal of Westfield College (1951–1962)","artworkType":"Painting","address":"Queen Mary, University of London, Mile End Road","organisation":"Queen Mary, University of London"},"geometry":{"type":"Point","coordinates":[-0.0403745,51.5240671],"certainty":"certain"}},{"type":"Feature","uuid":133311,"@id":"https://artuk.org/artworks/133311","properties":{"title":"Professor Adrian Smith, Principal of Queen Mary, University of London (1998–2008)","artworkType":"Painting","address":"Queen Mary, University of London, Mile End Road","organisation":"Queen Mary, University of London"},"geometry":{"type":"Point","coordinates":[-0.0403745,51.5240671],"certainty":"certain"}},{"type":"Feature","uuid":133312,"@id":"https://artuk.org/artworks/133312","properties":{"title":"Major General Sir Frederick B. Maurice (1871–1951), Principal of East London College and Queen Mary College (1933–1944)","artworkType":"Painting","address":"Queen Mary, University of London, Mile End Road","organisation":"Queen Mary, University of London"},"geometry":{"type":"Point","coordinates":[-0.0403745,51.5240671],"certainty":"certain"}},{"type":"Feature","uuid":133313,"@id":"https://artuk.org/artworks/133313","properties":{"title":"Sir Thomas P. Creed, Principal of Queen Mary College (1952–1967)","artworkType":"Painting","address":"Queen Mary, University of London, Mile End Road","organisation":"Queen Mary, University of London"},"geometry":{"type":"Point","coordinates":[-0.0403745,51.5240671],"certainty":"certain"}},{"type":"Feature","uuid":133314,"@id":"https://artuk.org/artworks/133314","properties":{"title":"Professor John Leigh Smeathman Hatton (1865–1933); Director of Evening Classes (1892–1896) and Director and Principal, East London College (1896–1933); Vice Chancellor of London University (1932–1933)","artworkType":"Painting","address":"Queen Mary, University of London, Mile End Road","organisation":"Queen Mary, University of London"},"geometry":{"type":"Point","coordinates":[-0.0403745,51.5240671],"certainty":"certain"}},{"type":"Feature","uuid":133315,"@id":"https://artuk.org/artworks/133315","properties":{"title":"Mrs Mary Stocks (1891–1975), Principal of Westfield College (1939–1951)","artworkType":"Painting","address":"Queen Mary, University of London, Mile End Road","organisation":"Queen Mary, University of London"},"geometry":{"type":"Point","coordinates":[-0.0403745,51.5240671],"certainty":"certain"}},{"type":"Feature","uuid":133316,"@id":"https://artuk.org/artworks/133316","properties":{"title":"Professor Brian Thwaites, MA (Cantab), PhD, Principal of Westfield College (1966–1984)","artworkType":"Painting","address":"Queen Mary, University of London, Mile End Road","organisation":"Queen Mary, University of London"},"geometry":{"type":"Point","coordinates":[-0.0403745,51.5240671],"certainty":"certain"}},{"type":"Feature","uuid":133317,"@id":"https://artuk.org/artworks/133317","properties":{"title":"Professor John Varey, Principal of Westfield College (1983–1989)","artworkType":"Painting","address":"Queen Mary, University of London, Mile End Road","organisation":"Queen Mary, University of London"},"geometry":{"type":"Point","coordinates":[-0.0403745,51.5240671],"certainty":"certain"}},{"type":"Feature","uuid":133318,"@id":"https://artuk.org/artworks/133318","properties":{"title":"Professor I. Butterworth, CBE, FRS, Principal of Queen Mary College (1986–1990)","artworkType":"Painting","address":"Queen Mary, University of London, Mile End Road","organisation":"Queen Mary, University of London"},"geometry":{"type":"Point","coordinates":[-0.0403745,51.5240671],"certainty":"certain"}},{"type":"Feature","uuid":133319,"@id":"https://artuk.org/artworks/133319","properties":{"title":"Bertha Phillpotts, DBC, MA, LHD, Principal of Westfield College (1919–1921)","artworkType":"Painting","address":"Queen Mary, University of London, Mile End Road","organisation":"Queen Mary, University of London"},"geometry":{"type":"Point","coordinates":[-0.0403745,51.5240671],"certainty":"certain"}},{"type":"Feature","uuid":133320,"@id":"https://artuk.org/artworks/133320","properties":{"title":"Constance Louisa Maynard, MA, Mistress of Westfield College (1882–1913)","artworkType":"Painting","address":"Queen Mary, University of London, Mile End Road","organisation":"Queen Mary, University of London"},"geometry":{"type":"Point","coordinates":[-0.0403745,51.5240671],"certainty":"certain"}},{"type":"Feature","uuid":133321,"@id":"https://artuk.org/artworks/133321","properties":{"title":"Eleanor Constance Lodge, MA, DLitt, Principal of Westfield College (1921–1931)","artworkType":"Painting","address":"Queen Mary, University of London, Mile End Road","organisation":"Queen Mary, University of London"},"geometry":{"type":"Point","coordinates":[-0.0403745,51.5240671],"certainty":"certain"}},{"type":"Feature","uuid":133322,"@id":"https://artuk.org/artworks/133322","properties":{"title":"Dorothy Chapman (1855–1941), MA, Principal of Westfield College (1931–1939)","artworkType":"Painting","address":"Queen Mary, University of London, Mile End Road","organisation":"Queen Mary, University of London"},"geometry":{"type":"Point","coordinates":[-0.0403745,51.5240671],"certainty":"certain"}},{"type":"Feature","uuid":266702,"@id":"https://artuk.org/artworks/266702","properties":{"title":"John Thomas Barber Beaumont (1774–1841)","artworkType":"Bust","address":"Queen Mary, University of London, Mile End Road","organisation":"Queen Mary, University of London"},"geometry":{"type":"Point","coordinates":[-0.0403745,51.5240671],"certainty":"certain"}},{"type":"Feature","uuid":266704,"@id":"https://artuk.org/artworks/266704","properties":{"title":"Clement Attlee (1883–1967)","artworkType":"Statue","address":"Queen Mary, University of London, Mile End Road","organisation":"Queen Mary, University of London"},"geometry":{"type":"Point","coordinates":[-0.0403745,51.5240671],"certainty":"certain"}},{"type":"Feature","uuid":266706,"@id":"https://artuk.org/artworks/266706","properties":{"title":"Knowledge","artworkType":"Sculpture","address":"Queen Mary, University of London, Mile End Road","organisation":"Queen Mary, University of London"},"geometry":{"type":"Point","coordinates":[-0.0403745,51.5240671],"certainty":"certain"}},{"type":"Feature","uuid":266708,"@id":"https://artuk.org/artworks/266708","properties":{"title":"Elephant in the Room","artworkType":"Sculpture","address":"Queen Mary, University of London, Mile End Road","organisation":"Queen Mary, University of London"},"geometry":{"type":"Point","coordinates":[-0.0403745,51.5240671],"certainty":"certain"}},{"type":"Feature","uuid":266709,"@id":"https://artuk.org/artworks/266709","properties":{"title":"Linked Forms II","artworkType":"Sculpture","address":"Queen Mary, University of London, Mile End Road","organisation":"Queen Mary, University of London"},"geometry":{"type":"Point","coordinates":[-0.0403745,51.5240671],"certainty":"certain"}},{"type":"Feature","uuid":266711,"@id":"https://artuk.org/artworks/266711","properties":{"title":"Mentis","artworkType":"Sculpture","address":"Queen Mary, University of London, Mile End Road","organisation":"Queen Mary, University of London"},"geometry":{"type":"Point","coordinates":[-0.0403745,51.5240671],"certainty":"certain"}},{"type":"Feature","uuid":266713,"@id":"https://artuk.org/artworks/266713","properties":{"title":"Geoffrey Chaucer (1340?–1400)","artworkType":"Bust","address":"Queen Mary, University of London, Mile End Road","organisation":"Queen Mary, University of London"},"geometry":{"type":"Point","coordinates":[-0.0403745,51.5240671],"certainty":"certain"}},{"type":"Feature","uuid":266715,"@id":"https://artuk.org/artworks/266715","properties":{"title":"Samuel Johnson (1709–1784)","artworkType":"Bust","address":"Queen Mary, University of London, Mile End Road","organisation":"Queen Mary, University of London"},"geometry":{"type":"Point","coordinates":[-0.0403745,51.5240671],"certainty":"certain"}},{"type":"Feature","uuid":266717,"@id":"https://artuk.org/artworks/266717","properties":{"title":"John Dryden (1631–1700)","artworkType":"Bust","address":"Queen Mary, University of London, Mile End Road","organisation":"Queen Mary, University of London"},"geometry":{"type":"Point","coordinates":[-0.0403745,51.5240671],"certainty":"certain"}},{"type":"Feature","uuid":266720,"@id":"https://artuk.org/artworks/266720","properties":{"title":"Sir Walter Scott (1771–1832)","artworkType":"Bust","address":"Queen Mary, University of London, Mile End Road","organisation":"Queen Mary, University of London"},"geometry":{"type":"Point","coordinates":[-0.0403745,51.5240671],"certainty":"certain"}},{"type":"Feature","uuid":266722,"@id":"https://artuk.org/artworks/266722","properties":{"title":"William Shakespeare (1564–1616)","artworkType":"Bust","address":"Queen Mary, University of London, Mile End Road","organisation":"Queen Mary, University of London"},"geometry":{"type":"Point","coordinates":[-0.0403745,51.5240671],"certainty":"certain"}},{"type":"Feature","uuid":266723,"@id":"https://artuk.org/artworks/266723","properties":{"title":"John Milton (1608–1674)","artworkType":"Bust","address":"Queen Mary, University of London, Mile End Road","organisation":"Queen Mary, University of London"},"geometry":{"type":"Point","coordinates":[-0.0403745,51.5240671],"certainty":"certain"}},{"type":"Feature","uuid":266725,"@id":"https://artuk.org/artworks/266725","properties":{"title":"Lord Byron (1788–1824)","artworkType":"Bust","address":"Queen Mary, University of London, Mile End Road","organisation":"Queen Mary, University of London"},"geometry":{"type":"Point","coordinates":[-0.0403745,51.5240671],"certainty":"certain"}},{"type":"Feature","uuid":266727,"@id":"https://artuk.org/artworks/266727","properties":{"title":"William Wordsworth (1770–1850)","artworkType":"Bust","address":"Queen Mary, University of London, Mile End Road","organisation":"Queen Mary, University of London"},"geometry":{"type":"Point","coordinates":[-0.0403745,51.5240671],"certainty":"certain"}},{"type":"Feature","uuid":133323,"@id":"https://artuk.org/artworks/133323","properties":{"title":"Professor Caroline Skeel (1872–1951), MA, DLitt","artworkType":"Painting","address":"Queen Mary, University of London Archives, Queen Mary, University of London Archives, Mile End Library, 328 Mile End Road","organisation":"Queen Mary, University of London Archives"},"geometry":{"type":"Point","coordinates":[-0.0405323,51.5234103],"certainty":"certain"}},{"type":"Feature","uuid":133324,"@id":"https://artuk.org/artworks/133324","properties":{"title":"Queenhithe Dock, Viewed from Bankside, Southwark ","artworkType":"Painting","address":"Queen Mary, University of London Archives, Queen Mary, University of London Archives, Mile End Library, 328 Mile End Road","organisation":"Queen Mary, University of London Archives"},"geometry":{"type":"Point","coordinates":[-0.0405323,51.5234103],"certainty":"certain"}},{"type":"Feature","uuid":135122,"@id":"https://artuk.org/artworks/135122","properties":{"title":"Sir Henry Lee, Master of the Armouries (1580–1610)","artworkType":"Painting","address":"Royal Armouries Museum, HM Tower Of London","organisation":"Royal Armouries Museum"},"geometry":{"type":"Point","coordinates":[-0.0760129,51.5086023],"certainty":"certain"}},{"type":"Feature","uuid":135123,"@id":"https://artuk.org/artworks/135123","properties":{"title":"Thomas Seymour (1508–1549), Lord Seymour of Sudeley","artworkType":"Painting","address":"Royal Armouries Museum, HM Tower Of London","organisation":"Royal Armouries Museum"},"geometry":{"type":"Point","coordinates":[-0.0760129,51.5086023],"certainty":"certain"}},{"type":"Feature","uuid":135124,"@id":"https://artuk.org/artworks/135124","properties":{"title":"Henry Hastings (c.1535–1595), KG, 3rd Earl of Huntingdon","artworkType":"Painting","address":"Royal Armouries Museum, HM Tower Of London","organisation":"Royal Armouries Museum"},"geometry":{"type":"Point","coordinates":[-0.0760129,51.5086023],"certainty":"certain"}},{"type":"Feature","uuid":135127,"@id":"https://artuk.org/artworks/135127","properties":{"title":"Portrait of an Unknown Man in Armour Holding a Pistol","artworkType":"Painting","address":"Royal Armouries Museum, HM Tower Of London","organisation":"Royal Armouries Museum"},"geometry":{"type":"Point","coordinates":[-0.0760129,51.5086023],"certainty":"certain"}},{"type":"Feature","uuid":135128,"@id":"https://artuk.org/artworks/135128","properties":{"title":"The Fire in the Tower of London (1841), from the South Bank of the Thames","artworkType":"Painting","address":"Royal Armouries Museum, HM Tower Of London","organisation":"Royal Armouries Museum"},"geometry":{"type":"Point","coordinates":[-0.0760129,51.5086023],"certainty":"certain"}},{"type":"Feature","uuid":135129,"@id":"https://artuk.org/artworks/135129","properties":{"title":"Richard Dean of Chislehurst, Kent, Rat Destroyer to the Board of Ordnance","artworkType":"Painting","address":"Royal Armouries Museum, HM Tower Of London","organisation":"Royal Armouries Museum"},"geometry":{"type":"Point","coordinates":[-0.0760129,51.5086023],"certainty":"certain"}},{"type":"Feature","uuid":135130,"@id":"https://artuk.org/artworks/135130","properties":{"title":"Self Portrait whilst Working at the Tower of London","artworkType":"Painting","address":"Royal Armouries Museum, HM Tower Of London","organisation":"Royal Armouries Museum"},"geometry":{"type":"Point","coordinates":[-0.0760129,51.5086023],"certainty":"certain"}},{"type":"Feature","uuid":135131,"@id":"https://artuk.org/artworks/135131","properties":{"title":"Thomas Coningsby, Earl Coningsby, and His Two Daughters, with the Tower of London in the Background","artworkType":"Painting","address":"Royal Armouries Museum, HM Tower Of London","organisation":"Royal Armouries Museum"},"geometry":{"type":"Point","coordinates":[-0.0760129,51.5086023],"certainty":"certain"}},{"type":"Feature","uuid":135132,"@id":"https://artuk.org/artworks/135132","properties":{"title":"Artist's Impression of the Tower of London Site, c.AD40","artworkType":"Painting","address":"Royal Armouries Museum, HM Tower Of London","organisation":"Royal Armouries Museum"},"geometry":{"type":"Point","coordinates":[-0.0760129,51.5086023],"certainty":"certain"}},{"type":"Feature","uuid":135133,"@id":"https://artuk.org/artworks/135133","properties":{"title":"Artist's Impression of the Tower of London Site, c.AD200","artworkType":"Painting","address":"Royal Armouries Museum, HM Tower Of London","organisation":"Royal Armouries Museum"},"geometry":{"type":"Point","coordinates":[-0.0760129,51.5086023],"certainty":"certain"}},{"type":"Feature","uuid":135134,"@id":"https://artuk.org/artworks/135134","properties":{"title":"Artist's Impression of the Tower of London Site, c.AD400","artworkType":"Painting","address":"Royal Armouries Museum, HM Tower Of London","organisation":"Royal Armouries Museum"},"geometry":{"type":"Point","coordinates":[-0.0760129,51.5086023],"certainty":"certain"}},{"type":"Feature","uuid":135135,"@id":"https://artuk.org/artworks/135135","properties":{"title":"Artist's Impression of the Tower of London Site, AD886","artworkType":"Painting","address":"Royal Armouries Museum, HM Tower Of London","organisation":"Royal Armouries Museum"},"geometry":{"type":"Point","coordinates":[-0.0760129,51.5086023],"certainty":"certain"}},{"type":"Feature","uuid":135136,"@id":"https://artuk.org/artworks/135136","properties":{"title":"Artist's Impression of the Tower of London Site, 1080","artworkType":"Painting","address":"Royal Armouries Museum, HM Tower Of London","organisation":"Royal Armouries Museum"},"geometry":{"type":"Point","coordinates":[-0.0760129,51.5086023],"certainty":"certain"}},{"type":"Feature","uuid":135137,"@id":"https://artuk.org/artworks/135137","properties":{"title":"Artist's Impression of the Tower of London Site, 1200","artworkType":"Painting","address":"Royal Armouries Museum, HM Tower Of London","organisation":"Royal Armouries Museum"},"geometry":{"type":"Point","coordinates":[-0.0760129,51.5086023],"certainty":"certain"}},{"type":"Feature","uuid":135138,"@id":"https://artuk.org/artworks/135138","properties":{"title":"Artist's Impression of the Tower of London Site, 1240","artworkType":"Painting","address":"Royal Armouries Museum, HM Tower Of London","organisation":"Royal Armouries Museum"},"geometry":{"type":"Point","coordinates":[-0.0760129,51.5086023],"certainty":"certain"}},{"type":"Feature","uuid":135139,"@id":"https://artuk.org/artworks/135139","properties":{"title":"Artist's Impression of the Tower of London Site, 1300","artworkType":"Painting","address":"Royal Armouries Museum, HM Tower Of London","organisation":"Royal Armouries Museum"},"geometry":{"type":"Point","coordinates":[-0.0760129,51.5086023],"certainty":"certain"}},{"type":"Feature","uuid":135140,"@id":"https://artuk.org/artworks/135140","properties":{"title":"Artist's Impression of the Tower of London Site, 1547","artworkType":"Painting","address":"Royal Armouries Museum, HM Tower Of London","organisation":"Royal Armouries Museum"},"geometry":{"type":"Point","coordinates":[-0.0760129,51.5086023],"certainty":"certain"}},{"type":"Feature","uuid":135141,"@id":"https://artuk.org/artworks/135141","properties":{"title":"Artist's Impression of the Tower of London Site, 1700","artworkType":"Painting","address":"Royal Armouries Museum, HM Tower Of London","organisation":"Royal Armouries Museum"},"geometry":{"type":"Point","coordinates":[-0.0760129,51.5086023],"certainty":"certain"}},{"type":"Feature","uuid":135142,"@id":"https://artuk.org/artworks/135142","properties":{"title":"Artist's Impression of the Tower of London Site, 1841","artworkType":"Painting","address":"Royal Armouries Museum, HM Tower Of London","organisation":"Royal Armouries Museum"},"geometry":{"type":"Point","coordinates":[-0.0760129,51.5086023],"certainty":"certain"}},{"type":"Feature","uuid":135143,"@id":"https://artuk.org/artworks/135143","properties":{"title":"Artist's Impression of the Tower of London Site, 1890","artworkType":"Painting","address":"Royal Armouries Museum, HM Tower Of London","organisation":"Royal Armouries Museum"},"geometry":{"type":"Point","coordinates":[-0.0760129,51.5086023],"certainty":"certain"}},{"type":"Feature","uuid":135144,"@id":"https://artuk.org/artworks/135144","properties":{"title":"Artist's Impression of the Tower of London Site, 1940","artworkType":"Painting","address":"Royal Armouries Museum, HM Tower Of London","organisation":"Royal Armouries Museum"},"geometry":{"type":"Point","coordinates":[-0.0760129,51.5086023],"certainty":"certain"}},{"type":"Feature","uuid":135145,"@id":"https://artuk.org/artworks/135145","properties":{"title":"Artist's Impression of the Tower of London Site, 1999","artworkType":"Painting","address":"Royal Armouries Museum, HM Tower Of London","organisation":"Royal Armouries Museum"},"geometry":{"type":"Point","coordinates":[-0.0760129,51.5086023],"certainty":"certain"}},{"type":"Feature","uuid":135146,"@id":"https://artuk.org/artworks/135146","properties":{"title":"Sir Francis Burdett (1770–1844)","artworkType":"Painting","address":"Royal Armouries Museum, HM Tower Of London","organisation":"Royal Armouries Museum"},"geometry":{"type":"Point","coordinates":[-0.0760129,51.5086023],"certainty":"certain"}},{"type":"Feature","uuid":135147,"@id":"https://artuk.org/artworks/135147","properties":{"title":"Sir John Robinson (1615–1680), Lord Mayor of London (1662)","artworkType":"Painting","address":"Royal Armouries Museum, HM Tower Of London","organisation":"Royal Armouries Museum"},"geometry":{"type":"Point","coordinates":[-0.0760129,51.5086023],"certainty":"certain"}},{"type":"Feature","uuid":135148,"@id":"https://artuk.org/artworks/135148","properties":{"title":"The Arrest of Anne Boleyn at Greenwich","artworkType":"Painting","address":"Royal Armouries Museum, HM Tower Of London","organisation":"Royal Armouries Museum"},"geometry":{"type":"Point","coordinates":[-0.0760129,51.5086023],"certainty":"certain"}},{"type":"Feature","uuid":135149,"@id":"https://artuk.org/artworks/135149","properties":{"title":"Horace, Lord Vere of Tilbury","artworkType":"Painting","address":"Royal Armouries Museum, HM Tower Of London","organisation":"Royal Armouries Museum"},"geometry":{"type":"Point","coordinates":[-0.0760129,51.5086023],"certainty":"certain"}},{"type":"Feature","uuid":135150,"@id":"https://artuk.org/artworks/135150","properties":{"title":"A Member of the Palmer Family","artworkType":"Painting","address":"Royal Armouries Museum, HM Tower Of London","organisation":"Royal Armouries Museum"},"geometry":{"type":"Point","coordinates":[-0.0760129,51.5086023],"certainty":"certain"}},{"type":"Feature","uuid":135151,"@id":"https://artuk.org/artworks/135151","properties":{"title":"Sir John Ligonier (1680–1770)","artworkType":"Painting","address":"Royal Armouries Museum, HM Tower Of London","organisation":"Royal Armouries Museum"},"geometry":{"type":"Point","coordinates":[-0.0760129,51.5086023],"certainty":"certain"}},{"type":"Feature","uuid":135152,"@id":"https://artuk.org/artworks/135152","properties":{"title":"William III (1650–1702), as Prince of Orange","artworkType":"Painting","address":"Royal Armouries Museum, HM Tower Of London","organisation":"Royal Armouries Museum"},"geometry":{"type":"Point","coordinates":[-0.0760129,51.5086023],"certainty":"certain"}},{"type":"Feature","uuid":296241,"@id":"https://artuk.org/artworks/296241","properties":{"title":"Wooden Horse","artworkType":"Equestrian","address":"Royal Armouries Museum, HM Tower Of London","organisation":"Royal Armouries Museum"},"geometry":{"type":"Point","coordinates":[-0.0760129,51.5086023],"certainty":"certain"}},{"type":"Feature","uuid":296242,"@id":"https://artuk.org/artworks/296242","properties":{"title":"Combat Model","artworkType":"Sculpture","address":"Royal Armouries Museum, HM Tower Of London","organisation":"Royal Armouries Museum"},"geometry":{"type":"Point","coordinates":[-0.0760129,51.5086023],"certainty":"certain"}},{"type":"Feature","uuid":296243,"@id":"https://artuk.org/artworks/296243","properties":{"title":"The Death of the Duke of Clarence at the Battle of Baugé","artworkType":"Equestrian","address":"Royal Armouries Museum, HM Tower Of London","organisation":"Royal Armouries Museum"},"geometry":{"type":"Point","coordinates":[-0.0760129,51.5086023],"certainty":"certain"}},{"type":"Feature","uuid":296244,"@id":"https://artuk.org/artworks/296244","properties":{"title":"Wooden Horse","artworkType":"Equestrian","address":"Royal Armouries Museum, HM Tower Of London","organisation":"Royal Armouries Museum"},"geometry":{"type":"Point","coordinates":[-0.0760129,51.5086023],"certainty":"certain"}},{"type":"Feature","uuid":296245,"@id":"https://artuk.org/artworks/296245","properties":{"title":"Arms of the Board of Ordnance","artworkType":"Coat of arms","address":"Royal Armouries Museum, HM Tower Of London","organisation":"Royal Armouries Museum"},"geometry":{"type":"Point","coordinates":[-0.0760129,51.5086023],"certainty":"certain"}},{"type":"Feature","uuid":296246,"@id":"https://artuk.org/artworks/296246","properties":{"title":"Arms of the Board of Ordnance","artworkType":"Coat of arms","address":"Royal Armouries Museum, HM Tower Of London","organisation":"Royal Armouries Museum"},"geometry":{"type":"Point","coordinates":[-0.0760129,51.5086023],"certainty":"certain"}},{"type":"Feature","uuid":296247,"@id":"https://artuk.org/artworks/296247","properties":{"title":"Triple Wooden Crown for Epee","artworkType":"Sculpture","address":"Royal Armouries Museum, HM Tower Of London","organisation":"Royal Armouries Museum"},"geometry":{"type":"Point","coordinates":[-0.0760129,51.5086023],"certainty":"certain"}},{"type":"Feature","uuid":296248,"@id":"https://artuk.org/artworks/296248","properties":{"title":"Eagle Models","artworkType":"Sculpture","address":"Royal Armouries Museum, HM Tower Of London","organisation":"Royal Armouries Museum"},"geometry":{"type":"Point","coordinates":[-0.0760129,51.5086023],"certainty":"certain"}},{"type":"Feature","uuid":296249,"@id":"https://artuk.org/artworks/296249","properties":{"title":"Carved Wooden Horse","artworkType":"Sculpture","address":"Royal Armouries Museum, HM Tower Of London","organisation":"Royal Armouries Museum"},"geometry":{"type":"Point","coordinates":[-0.0760129,51.5086023],"certainty":"certain"}},{"type":"Feature","uuid":296250,"@id":"https://artuk.org/artworks/296250","properties":{"title":"Wooden Horse","artworkType":"Equestrian","address":"Royal Armouries Museum, HM Tower Of London","organisation":"Royal Armouries Museum"},"geometry":{"type":"Point","coordinates":[-0.0760129,51.5086023],"certainty":"certain"}},{"type":"Feature","uuid":296251,"@id":"https://artuk.org/artworks/296251","properties":{"title":"Wooden Horse","artworkType":"Equestrian","address":"Royal Armouries Museum, HM Tower Of London","organisation":"Royal Armouries Museum"},"geometry":{"type":"Point","coordinates":[-0.0760129,51.5086023],"certainty":"certain"}},{"type":"Feature","uuid":296252,"@id":"https://artuk.org/artworks/296252","properties":{"title":"Wooden Horse","artworkType":"Equestrian","address":"Royal Armouries Museum, HM Tower Of London","organisation":"Royal Armouries Museum"},"geometry":{"type":"Point","coordinates":[-0.0760129,51.5086023],"certainty":"certain"}},{"type":"Feature","uuid":296253,"@id":"https://artuk.org/artworks/296253","properties":{"title":"Wooden Horse","artworkType":"Equestrian","address":"Royal Armouries Museum, HM Tower Of London","organisation":"Royal Armouries Museum"},"geometry":{"type":"Point","coordinates":[-0.0760129,51.5086023],"certainty":"certain"}},{"type":"Feature","uuid":296254,"@id":"https://artuk.org/artworks/296254","properties":{"title":"Wooden Horse","artworkType":"Equestrian","address":"Royal Armouries Museum, HM Tower Of London","organisation":"Royal Armouries Museum"},"geometry":{"type":"Point","coordinates":[-0.0760129,51.5086023],"certainty":"certain"}},{"type":"Feature","uuid":296255,"@id":"https://artuk.org/artworks/296255","properties":{"title":"Wooden Horse","artworkType":"Sculpture","address":"Royal Armouries Museum, HM Tower Of London","organisation":"Royal Armouries Museum"},"geometry":{"type":"Point","coordinates":[-0.0760129,51.5086023],"certainty":"certain"}},{"type":"Feature","uuid":296256,"@id":"https://artuk.org/artworks/296256","properties":{"title":"Wooden Horse","artworkType":"Equestrian","address":"Royal Armouries Museum, HM Tower Of London","organisation":"Royal Armouries Museum"},"geometry":{"type":"Point","coordinates":[-0.0760129,51.5086023],"certainty":"certain"}},{"type":"Feature","uuid":296257,"@id":"https://artuk.org/artworks/296257","properties":{"title":"Wooden Horse","artworkType":"Equestrian","address":"Royal Armouries Museum, HM Tower Of London","organisation":"Royal Armouries Museum"},"geometry":{"type":"Point","coordinates":[-0.0760129,51.5086023],"certainty":"certain"}},{"type":"Feature","uuid":296258,"@id":"https://artuk.org/artworks/296258","properties":{"title":"Wooden Horse","artworkType":"Equestrian","address":"Royal Armouries Museum, HM Tower Of London","organisation":"Royal Armouries Museum"},"geometry":{"type":"Point","coordinates":[-0.0760129,51.5086023],"certainty":"certain"}},{"type":"Feature","uuid":296259,"@id":"https://artuk.org/artworks/296259","properties":{"title":"Wooden Horse","artworkType":"Equestrian","address":"Royal Armouries Museum, HM Tower Of London","organisation":"Royal Armouries Museum"},"geometry":{"type":"Point","coordinates":[-0.0760129,51.5086023],"certainty":"certain"}},{"type":"Feature","uuid":296260,"@id":"https://artuk.org/artworks/296260","properties":{"title":"Wooden Horse","artworkType":"Equestrian","address":"Royal Armouries Museum, HM Tower Of London","organisation":"Royal Armouries Museum"},"geometry":{"type":"Point","coordinates":[-0.0760129,51.5086023],"certainty":"certain"}},{"type":"Feature","uuid":296261,"@id":"https://artuk.org/artworks/296261","properties":{"title":"Wooden Horse","artworkType":"Equestrian","address":"Royal Armouries Museum, HM Tower Of London","organisation":"Royal Armouries Museum"},"geometry":{"type":"Point","coordinates":[-0.0760129,51.5086023],"certainty":"certain"}},{"type":"Feature","uuid":296262,"@id":"https://artuk.org/artworks/296262","properties":{"title":"Madonna della Misericordia","artworkType":"Relief","address":"Royal Armouries Museum, HM Tower Of London","organisation":"Royal Armouries Museum"},"geometry":{"type":"Point","coordinates":[-0.0760129,51.5086023],"certainty":"certain"}},{"type":"Feature","uuid":296263,"@id":"https://artuk.org/artworks/296263","properties":{"title":"Winged Gilded Lion of Saint Mark","artworkType":"Sculpture","address":"Royal Armouries Museum, HM Tower Of London","organisation":"Royal Armouries Museum"},"geometry":{"type":"Point","coordinates":[-0.0760129,51.5086023],"certainty":"certain"}},{"type":"Feature","uuid":296264,"@id":"https://artuk.org/artworks/296264","properties":{"title":"Of the Lion of Saint Mark","artworkType":"Relief","address":"Royal Armouries Museum, HM Tower Of London","organisation":"Royal Armouries Museum"},"geometry":{"type":"Point","coordinates":[-0.0760129,51.5086023],"certainty":"certain"}},{"type":"Feature","uuid":296265,"@id":"https://artuk.org/artworks/296265","properties":{"title":"Henry VIII (1491–1547)","artworkType":"Bust","address":"Royal Armouries Museum, HM Tower Of London","organisation":"Royal Armouries Museum"},"geometry":{"type":"Point","coordinates":[-0.0760129,51.5086023],"certainty":"certain"}},{"type":"Feature","uuid":296266,"@id":"https://artuk.org/artworks/296266","properties":{"title":"Charles I (1600–1649)","artworkType":"Bust","address":"Royal Armouries Museum, HM Tower Of London","organisation":"Royal Armouries Museum"},"geometry":{"type":"Point","coordinates":[-0.0760129,51.5086023],"certainty":"certain"}},{"type":"Feature","uuid":296267,"@id":"https://artuk.org/artworks/296267","properties":{"title":"Charles II (1630–1685)","artworkType":"Bust","address":"Royal Armouries Museum, HM Tower Of London","organisation":"Royal Armouries Museum"},"geometry":{"type":"Point","coordinates":[-0.0760129,51.5086023],"certainty":"certain"}},{"type":"Feature","uuid":296268,"@id":"https://artuk.org/artworks/296268","properties":{"title":"Arthur Wellesley (1769–1852), 1st Duke of Wellington","artworkType":"Sculpture","address":"Royal Armouries Museum, HM Tower Of London","organisation":"Royal Armouries Museum"},"geometry":{"type":"Point","coordinates":[-0.0760129,51.5086023],"certainty":"certain"}},{"type":"Feature","uuid":296269,"@id":"https://artuk.org/artworks/296269","properties":{"title":"Either Henry VI (1421–1471) or Henry VII (1457–1509)","artworkType":"Bust","address":"Royal Armouries Museum, HM Tower Of London","organisation":"Royal Armouries Museum"},"geometry":{"type":"Point","coordinates":[-0.0760129,51.5086023],"certainty":"certain"}},{"type":"Feature","uuid":296270,"@id":"https://artuk.org/artworks/296270","properties":{"title":"Edward III (1312–1377)","artworkType":"Bust","address":"Royal Armouries Museum, HM Tower Of London","organisation":"Royal Armouries Museum"},"geometry":{"type":"Point","coordinates":[-0.0760129,51.5086023],"certainty":"certain"}},{"type":"Feature","uuid":296271,"@id":"https://artuk.org/artworks/296271","properties":{"title":"John of Gaunt (1340–1399)","artworkType":"Sculpture","address":"Royal Armouries Museum, HM Tower Of London","organisation":"Royal Armouries Museum"},"geometry":{"type":"Point","coordinates":[-0.0760129,51.5086023],"certainty":"certain"}},{"type":"Feature","uuid":296272,"@id":"https://artuk.org/artworks/296272","properties":{"title":"Either Henry VI (1421–1471) or Henry VII (1457–1509)","artworkType":"Bust","address":"Royal Armouries Museum, HM Tower Of London","organisation":"Royal Armouries Museum"},"geometry":{"type":"Point","coordinates":[-0.0760129,51.5086023],"certainty":"certain"}},{"type":"Feature","uuid":296273,"@id":"https://artuk.org/artworks/296273","properties":{"title":"Henry V (1386–1422) (?)","artworkType":"Bust","address":"Royal Armouries Museum, HM Tower Of London","organisation":"Royal Armouries Museum"},"geometry":{"type":"Point","coordinates":[-0.0760129,51.5086023],"certainty":"certain"}},{"type":"Feature","uuid":296274,"@id":"https://artuk.org/artworks/296274","properties":{"title":"William III (1650–1702) (?)","artworkType":"Sculpture","address":"Royal Armouries Museum, HM Tower Of London","organisation":"Royal Armouries Museum"},"geometry":{"type":"Point","coordinates":[-0.0760129,51.5086023],"certainty":"certain"}},{"type":"Feature","uuid":296275,"@id":"https://artuk.org/artworks/296275","properties":{"title":"James I (1394–1437) (?)","artworkType":"Bust","address":"Royal Armouries Museum, HM Tower Of London","organisation":"Royal Armouries Museum"},"geometry":{"type":"Point","coordinates":[-0.0760129,51.5086023],"certainty":"certain"}},{"type":"Feature","uuid":296277,"@id":"https://artuk.org/artworks/296277","properties":{"title":"Edward V (1470–1483)","artworkType":"Sculpture","address":"Royal Armouries Museum, HM Tower Of London","organisation":"Royal Armouries Museum"},"geometry":{"type":"Point","coordinates":[-0.0760129,51.5086023],"certainty":"certain"}},{"type":"Feature","uuid":296278,"@id":"https://artuk.org/artworks/296278","properties":{"title":"Lord Dillon","artworkType":"Sculpture","address":"Royal Armouries Museum, HM Tower Of London","organisation":"Royal Armouries Museum"},"geometry":{"type":"Point","coordinates":[-0.0760129,51.5086023],"certainty":"certain"}},{"type":"Feature","uuid":296279,"@id":"https://artuk.org/artworks/296279","properties":{"title":"Of a Pikeman","artworkType":"Sculpture","address":"Royal Armouries Museum, HM Tower Of London","organisation":"Royal Armouries Museum"},"geometry":{"type":"Point","coordinates":[-0.0760129,51.5086023],"certainty":"certain"}},{"type":"Feature","uuid":296280,"@id":"https://artuk.org/artworks/296280","properties":{"title":"Head of a Turk","artworkType":"Bust","address":"Royal Armouries Museum, HM Tower Of London","organisation":"Royal Armouries Museum"},"geometry":{"type":"Point","coordinates":[-0.0760129,51.5086023],"certainty":"certain"}},{"type":"Feature","uuid":296281,"@id":"https://artuk.org/artworks/296281","properties":{"title":"Bearded Wooden Head","artworkType":"Sculpture","address":"Royal Armouries Museum, HM Tower Of London","organisation":"Royal Armouries Museum"},"geometry":{"type":"Point","coordinates":[-0.0760129,51.5086023],"certainty":"certain"}},{"type":"Feature","uuid":296282,"@id":"https://artuk.org/artworks/296282","properties":{"title":"Bearded Wooden Head","artworkType":"Sculpture","address":"Royal Armouries Museum, HM Tower Of London","organisation":"Royal Armouries Museum"},"geometry":{"type":"Point","coordinates":[-0.0760129,51.5086023],"certainty":"certain"}},{"type":"Feature","uuid":296283,"@id":"https://artuk.org/artworks/296283","properties":{"title":"Bearded Wooden Head","artworkType":"Sculpture","address":"Royal Armouries Museum, HM Tower Of London","organisation":"Royal Armouries Museum"},"geometry":{"type":"Point","coordinates":[-0.0760129,51.5086023],"certainty":"certain"}},{"type":"Feature","uuid":296284,"@id":"https://artuk.org/artworks/296284","properties":{"title":"Lord Kitchener (1850–1916)","artworkType":"Sculpture","address":"Royal Armouries Museum, HM Tower Of London","organisation":"Royal Armouries Museum"},"geometry":{"type":"Point","coordinates":[-0.0760129,51.5086023],"certainty":"certain"}},{"type":"Feature","uuid":296285,"@id":"https://artuk.org/artworks/296285","properties":{"title":"Bearded Wooden Head","artworkType":"Sculpture","address":"Royal Armouries Museum, HM Tower Of London","organisation":"Royal Armouries Museum"},"geometry":{"type":"Point","coordinates":[-0.0760129,51.5086023],"certainty":"certain"}},{"type":"Feature","uuid":296286,"@id":"https://artuk.org/artworks/296286","properties":{"title":"Wooden Head","artworkType":"Bust","address":"Royal Armouries Museum, HM Tower Of London","organisation":"Royal Armouries Museum"},"geometry":{"type":"Point","coordinates":[-0.0760129,51.5086023],"certainty":"certain"}},{"type":"Feature","uuid":296287,"@id":"https://artuk.org/artworks/296287","properties":{"title":"Bearded Wooden Head","artworkType":"Sculpture","address":"Royal Armouries Museum, HM Tower Of London","organisation":"Royal Armouries Museum"},"geometry":{"type":"Point","coordinates":[-0.0760129,51.5086023],"certainty":"certain"}},{"type":"Feature","uuid":296288,"@id":"https://artuk.org/artworks/296288","properties":{"title":"Bearded Wooden Head","artworkType":"Sculpture","address":"Royal Armouries Museum, HM Tower Of London","organisation":"Royal Armouries Museum"},"geometry":{"type":"Point","coordinates":[-0.0760129,51.5086023],"certainty":"certain"}},{"type":"Feature","uuid":296289,"@id":"https://artuk.org/artworks/296289","properties":{"title":"Wooden Head","artworkType":"Bust","address":"Royal Armouries Museum, HM Tower Of London","organisation":"Royal Armouries Museum"},"geometry":{"type":"Point","coordinates":[-0.0760129,51.5086023],"certainty":"certain"}},{"type":"Feature","uuid":296290,"@id":"https://artuk.org/artworks/296290","properties":{"title":"Wooden Head","artworkType":"Bust","address":"Royal Armouries Museum, HM Tower Of London","organisation":"Royal Armouries Museum"},"geometry":{"type":"Point","coordinates":[-0.0760129,51.5086023],"certainty":"certain"}},{"type":"Feature","uuid":296291,"@id":"https://artuk.org/artworks/296291","properties":{"title":"Wooden Head","artworkType":"Bust","address":"Royal Armouries Museum, HM Tower Of London","organisation":"Royal Armouries Museum"},"geometry":{"type":"Point","coordinates":[-0.0760129,51.5086023],"certainty":"certain"}},{"type":"Feature","uuid":296292,"@id":"https://artuk.org/artworks/296292","properties":{"title":"Wooden Head","artworkType":"Bust","address":"Royal Armouries Museum, HM Tower Of London","organisation":"Royal Armouries Museum"},"geometry":{"type":"Point","coordinates":[-0.0760129,51.5086023],"certainty":"certain"}},{"type":"Feature","uuid":296293,"@id":"https://artuk.org/artworks/296293","properties":{"title":"Wooden Head","artworkType":"Bust","address":"Royal Armouries Museum, HM Tower Of London","organisation":"Royal Armouries Museum"},"geometry":{"type":"Point","coordinates":[-0.0760129,51.5086023],"certainty":"certain"}},{"type":"Feature","uuid":296294,"@id":"https://artuk.org/artworks/296294","properties":{"title":"Wooden Head","artworkType":"Bust","address":"Royal Armouries Museum, HM Tower Of London","organisation":"Royal Armouries Museum"},"geometry":{"type":"Point","coordinates":[-0.0760129,51.5086023],"certainty":"certain"}},{"type":"Feature","uuid":296295,"@id":"https://artuk.org/artworks/296295","properties":{"title":"Wooden Head","artworkType":"Bust","address":"Royal Armouries Museum, HM Tower Of London","organisation":"Royal Armouries Museum"},"geometry":{"type":"Point","coordinates":[-0.0760129,51.5086023],"certainty":"certain"}},{"type":"Feature","uuid":296296,"@id":"https://artuk.org/artworks/296296","properties":{"title":"Wooden Head","artworkType":"Bust","address":"Royal Armouries Museum, HM Tower Of London","organisation":"Royal Armouries Museum"},"geometry":{"type":"Point","coordinates":[-0.0760129,51.5086023],"certainty":"certain"}},{"type":"Feature","uuid":296297,"@id":"https://artuk.org/artworks/296297","properties":{"title":"Wooden Head","artworkType":"Bust","address":"Royal Armouries Museum, HM Tower Of London","organisation":"Royal Armouries Museum"},"geometry":{"type":"Point","coordinates":[-0.0760129,51.5086023],"certainty":"certain"}},{"type":"Feature","uuid":296298,"@id":"https://artuk.org/artworks/296298","properties":{"title":"Wooden Head","artworkType":"Bust","address":"Royal Armouries Museum, HM Tower Of London","organisation":"Royal Armouries Museum"},"geometry":{"type":"Point","coordinates":[-0.0760129,51.5086023],"certainty":"certain"}},{"type":"Feature","uuid":296299,"@id":"https://artuk.org/artworks/296299","properties":{"title":"Wooden Head","artworkType":"Bust","address":"Royal Armouries Museum, HM Tower Of London","organisation":"Royal Armouries Museum"},"geometry":{"type":"Point","coordinates":[-0.0760129,51.5086023],"certainty":"certain"}},{"type":"Feature","uuid":296300,"@id":"https://artuk.org/artworks/296300","properties":{"title":"Wooden Head","artworkType":"Bust","address":"Royal Armouries Museum, HM Tower Of London","organisation":"Royal Armouries Museum"},"geometry":{"type":"Point","coordinates":[-0.0760129,51.5086023],"certainty":"certain"}},{"type":"Feature","uuid":296301,"@id":"https://artuk.org/artworks/296301","properties":{"title":"Wooden Head","artworkType":"Bust","address":"Royal Armouries Museum, HM Tower Of London","organisation":"Royal Armouries Museum"},"geometry":{"type":"Point","coordinates":[-0.0760129,51.5086023],"certainty":"certain"}},{"type":"Feature","uuid":296302,"@id":"https://artuk.org/artworks/296302","properties":{"title":"Wooden Head","artworkType":"Bust","address":"Royal Armouries Museum, HM Tower Of London","organisation":"Royal Armouries Museum"},"geometry":{"type":"Point","coordinates":[-0.0760129,51.5086023],"certainty":"certain"}},{"type":"Feature","uuid":296303,"@id":"https://artuk.org/artworks/296303","properties":{"title":"Wooden Head","artworkType":"Bust","address":"Royal Armouries Museum, HM Tower Of London","organisation":"Royal Armouries Museum"},"geometry":{"type":"Point","coordinates":[-0.0760129,51.5086023],"certainty":"certain"}},{"type":"Feature","uuid":296304,"@id":"https://artuk.org/artworks/296304","properties":{"title":"Wooden Head","artworkType":"Bust","address":"Royal Armouries Museum, HM Tower Of London","organisation":"Royal Armouries Museum"},"geometry":{"type":"Point","coordinates":[-0.0760129,51.5086023],"certainty":"certain"}},{"type":"Feature","uuid":296305,"@id":"https://artuk.org/artworks/296305","properties":{"title":"Wooden Head","artworkType":"Bust","address":"Royal Armouries Museum, HM Tower Of London","organisation":"Royal Armouries Museum"},"geometry":{"type":"Point","coordinates":[-0.0760129,51.5086023],"certainty":"certain"}},{"type":"Feature","uuid":296306,"@id":"https://artuk.org/artworks/296306","properties":{"title":"Wooden Head","artworkType":"Sculpture","address":"Royal Armouries Museum, HM Tower Of London","organisation":"Royal Armouries Museum"},"geometry":{"type":"Point","coordinates":[-0.0760129,51.5086023],"certainty":"certain"}},{"type":"Feature","uuid":296307,"@id":"https://artuk.org/artworks/296307","properties":{"title":"Wooden Head","artworkType":"Bust","address":"Royal Armouries Museum, HM Tower Of London","organisation":"Royal Armouries Museum"},"geometry":{"type":"Point","coordinates":[-0.0760129,51.5086023],"certainty":"certain"}},{"type":"Feature","uuid":296308,"@id":"https://artuk.org/artworks/296308","properties":{"title":"Wooden Head","artworkType":"Bust","address":"Royal Armouries Museum, HM Tower Of London","organisation":"Royal Armouries Museum"},"geometry":{"type":"Point","coordinates":[-0.0760129,51.5086023],"certainty":"certain"}},{"type":"Feature","uuid":296309,"@id":"https://artuk.org/artworks/296309","properties":{"title":"Wooden Head","artworkType":"Bust","address":"Royal Armouries Museum, HM Tower Of London","organisation":"Royal Armouries Museum"},"geometry":{"type":"Point","coordinates":[-0.0760129,51.5086023],"certainty":"certain"}},{"type":"Feature","uuid":296310,"@id":"https://artuk.org/artworks/296310","properties":{"title":"Bearded Wooden Head","artworkType":"Sculpture","address":"Royal Armouries Museum, HM Tower Of London","organisation":"Royal Armouries Museum"},"geometry":{"type":"Point","coordinates":[-0.0760129,51.5086023],"certainty":"certain"}},{"type":"Feature","uuid":296311,"@id":"https://artuk.org/artworks/296311","properties":{"title":"Wooden Head","artworkType":"Bust","address":"Royal Armouries Museum, HM Tower Of London","organisation":"Royal Armouries Museum"},"geometry":{"type":"Point","coordinates":[-0.0760129,51.5086023],"certainty":"certain"}},{"type":"Feature","uuid":296312,"@id":"https://artuk.org/artworks/296312","properties":{"title":"Wooden Head","artworkType":"Bust","address":"Royal Armouries Museum, HM Tower Of London","organisation":"Royal Armouries Museum"},"geometry":{"type":"Point","coordinates":[-0.0760129,51.5086023],"certainty":"certain"}},{"type":"Feature","uuid":296313,"@id":"https://artuk.org/artworks/296313","properties":{"title":"Wooden Head","artworkType":"Bust","address":"Royal Armouries Museum, HM Tower Of London","organisation":"Royal Armouries Museum"},"geometry":{"type":"Point","coordinates":[-0.0760129,51.5086023],"certainty":"certain"}},{"type":"Feature","uuid":296314,"@id":"https://artuk.org/artworks/296314","properties":{"title":"Wooden Head","artworkType":"Bust","address":"Royal Armouries Museum, HM Tower Of London","organisation":"Royal Armouries Museum"},"geometry":{"type":"Point","coordinates":[-0.0760129,51.5086023],"certainty":"certain"}},{"type":"Feature","uuid":296315,"@id":"https://artuk.org/artworks/296315","properties":{"title":"Wooden Head","artworkType":"Sculpture","address":"Royal Armouries Museum, HM Tower Of London","organisation":"Royal Armouries Museum"},"geometry":{"type":"Point","coordinates":[-0.0760129,51.5086023],"certainty":"certain"}},{"type":"Feature","uuid":296316,"@id":"https://artuk.org/artworks/296316","properties":{"title":"Wooden Head","artworkType":"Bust","address":"Royal Armouries Museum, HM Tower Of London","organisation":"Royal Armouries Museum"},"geometry":{"type":"Point","coordinates":[-0.0760129,51.5086023],"certainty":"certain"}},{"type":"Feature","uuid":296317,"@id":"https://artuk.org/artworks/296317","properties":{"title":"Lion Head","artworkType":"Sculpture","address":"Royal Armouries Museum, HM Tower Of London","organisation":"Royal Armouries Museum"},"geometry":{"type":"Point","coordinates":[-0.0760129,51.5086023],"certainty":"certain"}},{"type":"Feature","uuid":296318,"@id":"https://artuk.org/artworks/296318","properties":{"title":"Henry VII (1491–1547)","artworkType":"Bust","address":"Royal Armouries Museum, HM Tower Of London","organisation":"Royal Armouries Museum"},"geometry":{"type":"Point","coordinates":[-0.0760129,51.5086023],"certainty":"certain"}},{"type":"Feature","uuid":296319,"@id":"https://artuk.org/artworks/296319","properties":{"title":"Wooden Head","artworkType":"Bust","address":"Royal Armouries Museum, HM Tower Of London","organisation":"Royal Armouries Museum"},"geometry":{"type":"Point","coordinates":[-0.0760129,51.5086023],"certainty":"certain"}},{"type":"Feature","uuid":296320,"@id":"https://artuk.org/artworks/296320","properties":{"title":"Grand Storehouse Tympanum","artworkType":"Sculpture","address":"Royal Armouries Museum, HM Tower Of London","organisation":"Royal Armouries Museum"},"geometry":{"type":"Point","coordinates":[-0.0760129,51.5086023],"certainty":"certain"}},{"type":"Feature","uuid":296321,"@id":"https://artuk.org/artworks/296321","properties":{"title":"Personification of Gin","artworkType":"Statue","address":"Royal Armouries Museum, HM Tower Of London","organisation":"Royal Armouries Museum"},"geometry":{"type":"Point","coordinates":[-0.0760129,51.5086023],"certainty":"certain"}},{"type":"Feature","uuid":296322,"@id":"https://artuk.org/artworks/296322","properties":{"title":"Personification of Beer","artworkType":"Statue","address":"Royal Armouries Museum, HM Tower Of London","organisation":"Royal Armouries Museum"},"geometry":{"type":"Point","coordinates":[-0.0760129,51.5086023],"certainty":"certain"}},{"type":"Feature","uuid":296323,"@id":"https://artuk.org/artworks/296323","properties":{"title":"A Bearded Man","artworkType":"Sculpture","address":"Royal Armouries Museum, HM Tower Of London","organisation":"Royal Armouries Museum"},"geometry":{"type":"Point","coordinates":[-0.0760129,51.5086023],"certainty":"certain"}},{"type":"Feature","uuid":296324,"@id":"https://artuk.org/artworks/296324","properties":{"title":"A Bearded Man","artworkType":"Sculpture","address":"Royal Armouries Museum, HM Tower Of London","organisation":"Royal Armouries Museum"},"geometry":{"type":"Point","coordinates":[-0.0760129,51.5086023],"certainty":"certain"}},{"type":"Feature","uuid":215987,"@id":"https://artuk.org/artworks/215987","properties":{"title":"Professor Sheila Hollins, President of the Royal College of Psychiatrists (2005–2008)","artworkType":"Painting","address":"Royal College of Psychiatrists, 21 Prescot Street","organisation":"Royal College of Psychiatrists"},"geometry":{"type":"Point","coordinates":[-0.0713052,51.5115055],"certainty":"certain"}},{"type":"Feature","uuid":215988,"@id":"https://artuk.org/artworks/215988","properties":{"title":"The Maniac","artworkType":"Painting","address":"Royal College of Psychiatrists, 21 Prescot Street","organisation":"Royal College of Psychiatrists"},"geometry":{"type":"Point","coordinates":[-0.0713052,51.5115055],"certainty":"certain"}},{"type":"Feature","uuid":215989,"@id":"https://artuk.org/artworks/215989","properties":{"title":"Dame Fiona Caldicott, DBE, President of the Royal College of Psychiatrists (1993–1996)","artworkType":"Painting","address":"Royal College of Psychiatrists, 21 Prescot Street","organisation":"Royal College of Psychiatrists"},"geometry":{"type":"Point","coordinates":[-0.0713052,51.5115055],"certainty":"certain"}},{"type":"Feature","uuid":215990,"@id":"https://artuk.org/artworks/215990","properties":{"title":"Dr Robert Kendell, President of the Royal College of Psychiatrists (1996–1999)","artworkType":"Painting","address":"Royal College of Psychiatrists, 21 Prescot Street","organisation":"Royal College of Psychiatrists"},"geometry":{"type":"Point","coordinates":[-0.0713052,51.5115055],"certainty":"certain"}},